stop_id,stop_code,stop_name,stop_desc,stop_lat,stop_lon,zone_id,stop_url,location_type,parent_station,wheelchair_boarding,stop_direction
1089516,,MARTA - Arts Center,,33.789077758133196,-84.38680267356139,,,0,,0,
1089517,,17th St @ Commerce St,Wells Fargo Inbound,33.791421669546,-84.394099037934,,,0,,0,
1089518,,17th St @ B.B.&T.,,33.791437109524,-84.395939112066,,,0,,0,
1089519,,17th St @ Atlantic Dr,,33.791448582308,-84.397342176295,,,0,,0,
1089520,,17th St @ Mecaslin St,Park District,33.790800093389,-84.401523066033,,,0,,0,
1089521,,Village St @ IKEA,,33.788910953901,-84.402861650688,,,0,,0,
1089522,,17th St @ Mecaslin St,Art Foundry,33.790006161623,-84.400399635606,,,0,,0,
1089523,,17th St @ State St,Element,33.79092753421,-84.399016618623,,,0,,0,
1089524,,17th St @ Market St,Wells Fargo Outbound,33.790928407063,-84.394812856033,,,0,,0,
1134855,,Piedmont Center 5-8,,33.850229261049,-84.376667348623,,,0,,0,
117,,The Prominence,,33.84990389589183,-84.37474541273983,,,0,,0,
118,,Piedmont Center 1-4,,33.851944260443375,-84.37951760612631,,,0,,0,
119,,Securities Centre,,33.849007721559,-84.37627632259,,,0,,0,
120,,"Tower Place 200, The Meridian, Buckhead Grand, Buckhead Station Shopping Center",,33.848507439984,-84.369993045968,,,0,,0,
121,,"Tower Place 200, The Meridian, Buckhead Grand, Buckhead Station Shopping Center",,33.84834063602,-84.369793876443,,,0,,0,
122,,"Tower Place 100, Courtyard by Marriott, DoubleTree Hotel",,33.847008528559,-84.370956088786,,,0,,0,
123,,"Tower Place 100, Courtyard by Marriott, DoubleTree Hotel",,33.846800137634,-84.370793014131,,,0,,0,
124,,"The Grand Hyatt, Terminus, The Realm",,33.845693842665,-84.369761209574,,,0,,0,
125,,"The Grand Hyatt, Terminus, The Realm",,33.845498872177,-84.369958234918,,,0,,0,
126,,"Buckhead MARTA rail, Mandarian Oriental Hotel, Westin Hotel, W Hotel, Peachtree Lenox Building, One Capital City Plaza, Atlanta Financial Center, 3344 Peachtree, Sovereign",,33.847631414686,-84.367671688148,,,0,,0,
127,,"Buckhead MARTA rail, Mandarian Oriental Hotel, Westin Hotel, W Hotel, Peachtree Lenox Building, One Capital City Plaza, Atlanta Financial Center, 3344 Peachtree, Sovereign",,33.847429790094,-84.367418309787,,,0,,0,
130,,"One Alliance Center, Two Alliance Center, Monarch Tower, Monarch Plaza",,33.852042260445,-84.366018616246,,,0,,0,
131,,"Lenox Square Main Entrance, Lenox Towers",,33.84827780148862,-84.36360597930184,,,0,,0,
132,,"Lenox Square Main Entrance, Lenox Towers",,33.84811336018547,-84.36350267313821,,,0,,0,
133,,"Phipps Plaza, Phipps Tower",,33.852441312646,-84.363022462591,,,0,,0,
134,,"The Pinnacle, Two Live Oak, One Live Oak, Lenox Marketplace (Target, Publix, Dick’s)",,33.850873501979,-84.360073483016,,,0,,0,
135,,"The Pinnacle, Two Live Oak, One Live Oak, Lenox Marketplace (Target, Publix, Dick’s)",,33.850050104482,-84.359944815394,,,0,,0,
136,,"Atlanta Marriott Buckhead, JW Marriott, Lenox Center",,33.84823637174482,-84.360140608091,,,0,,0,
138,,Lenox Square Food Court,,33.845189225652,-84.361067934968,,,0,,0,
139,,"Lenox MARTA, Atlanta Plaza, Resurgens Plaza, Alexan Lenox",,33.847019796732,-84.356319064492,,,0,,0,
140,,AT&T Building 2180,,33.848521920673,-84.346400740213,,,0,,0,
141,,AT&T Building 1025,,33.851053594728,-84.345837885493,,,0,,0,
142,,AT&T Building 1277,,33.849594003649,-84.344229214656,,,0,,0,
143,,Piedmont Center 9-12,,33.85140650931731,-84.37525972638744,,,0,,0,
1082598,201,City Hall (Transfer for both Routes),Elizabeth St @ E Marietta St,34.23477142644429,-84.4903907395083,,,0,,0,
1082599,202,Must Ministries,141 W Marietta St,34.232385474610446,-84.49103569183737,,,0,,0,
1082600,203,Lower Dr. John T. Pettit,Dr John T Pettit St @ Marietta Rd,34.23131709972703,-84.49040227535612,,,0,,0,
1082601,204,Hearthstone Landing Apts./ Cherokee Family Violence Center,100 Cherokee St,34.231877474518726,-84.4853491935205,,,0,,0,
1082602,205,Upper Dr. John T. Pettit & Main St,Dr John T Pettit St @ E Main St,34.234622140585266,-84.48594994317797,,,0,,0,
1082603,206,Shipp St @ Shelter,Shipp St @ Cul de Sac,34.23817297301816,-84.48426431842873,,,0,,0,
1082604,207,Shipp St @ Main St,Shipp St @ E Main St,34.23520147377531,-84.48470294352562,,,0,,0,
1082605,208,Jefferson Circle @ Shelter,35 Jefferson Cir,34.23232564098474,-84.48258886096257,,,0,,0,
1082606,209,Jefferson Circle @ Stop Sign,Jefferson Cir @ Crisler St,34.233297640773586,-84.48217369437215,,,0,,0,
1082607,210,Main St & Crisler St,Crisler St @ E Main St,34.236651894060394,-84.48111363530161,,,0,,0,
1082608,211,Library,116 Brown Industrial Pkwy,34.237508379326,-84.469239913279,,,0,,0,
1082609,212,Department of Family & Children Services,105 Lamar Haley Pkwy,34.242064673486,-84.473376143115,,,0,,0,
1082610,213,Hasty Elementary,205 Brown Industrial Pkwy,34.24000452780936,-84.47126630828153,,,0,,0,
1082611,216,Walmart (Transfer for both Routes),1550 Riverstone Parkway,34.256114885086895,-84.46154644911444,,,0,,0,
1082612,217,Kmart (Canton Corners),1750 Marietta Hwy,34.22352422311,-84.502480517345,,,0,,0,
1082613,218,Colonial Village,2530 Marietta Hwy @ Morris Hill Rd,34.21300810661,-84.504530774656,,,0,,0,
1082614,220,McDonalds @ Ridge Rd. & Hwy 5,Marietta Hwy @ Ridge Rd,34.198258413417,-84.508829913868,,,0,,0,
1082615,221,Prominence Point Shopping,140 Prominence Point Pkwy,34.19131495077687,-84.51003782185032,,,0,,0,
1082616,222,Kroger (Canton Kroger Shopping Center),4045 Marietta Hwy,34.192814205903744,-84.50732835588501,,,0,,0,
1082617,223,Health Department,1219 Univeter Rd,34.19330473311741,-84.4930610683731,,,0,,0,
1082618,224,Dairy Queen,2745 Marietta Hwy @ Latimer Dr,34.21030870211528,-84.50446491137882,,,0,,0,
1082619,225,Coppermine Manor Subdivision,Marietta Rd @ Copper Mine Ln,34.22411589310538,-84.49405752470179,,,0,,0,
1082620,226,Marietta Road & Edwards Street,490 Marietta Rd @ Edwards St,34.22688647627,-84.492752212328,,,0,,0,
1082622,107,Juniper St & Canton Mill Loft Apts.,100 Juniper St @ Shelter,34.24482763839143,-84.48678302569924,,,0,,0,
1082624,103,Cherokee North Apartment,North St @ Dupree St,34.23720280681779,-84.48869789225317,,,0,,0,
1082625,104,North St (at courthouse benches),100 North St,34.23740214018384,-84.49090635826447,,,0,,0,
1082626,105,YMCA-G. Cecil Pruett Community Center,151 Waleska St,34.242625527958225,-84.49249524637868,,,0,,0,
1082627,106,Ingles,104 Riverstone Parkway,34.24284180565467,-84.49148319110675,,,0,,0,
1082628,108,Birch St & Lakeview Dr,Birch St @ Lakeview Dr,34.24685147134103,-84.4878218586298,,,0,,0,
1082629,109,Oakside Professional Center,Medical Lane @ Oakside Ct,34.247436971332085,-84.48982302471089,,,0,,0,
1082630,110,Lancaster Ridge Apts.,Hickory Knoll Dr @ Shelter,34.251235970481744,-84.4889941914108,,,0,,0,
1082631,112,Oakside Apts. @ Cul-de-Sac Shelter,1400 Oakside Dr @ Cul-de-Sac Shelter,34.253285636716406,-84.48798402495508,,,0,,0,
1082632,111,Oakside Apts. @ Hilltop,1400 Oakside Dr @ Hilltop shelter,34.25205030371402,-84.49127402403202,,,0,,0,
1082633,113,Northside Hospital - Cherokee,Hospital Dr @ Crosswalk to Main Entrance,34.245992971655994,-84.49038427462156,,,0,,0,
1082634,114,Hospital Road & Mashburn Road,Hospital Rd @ Mashburn Rd,34.248252679574726,-84.49179419076881,,,0,,0,
1082635,115,Hospital Road & Highway 140,Hospital Rd @ Waleska Rd (Ga 140),34.252786914813385,-84.49375063441894,,,0,,0,
1082636,116,Highway 140 & Reinhardt College Parkway,Reinhardt College Pkwy 150 yds east Ga 140,34.25685996952911,-84.49400224525316,,,0,,0,
1082637,117,River Ridge Apts. & Heritage Apts.,Reinhardt College Pkwy @ Shelter east of River Ridge Dr,34.25758321919467,-84.4889456911309,,,0,,0,
1082638,120,Belk,1447 Riverstone Pkwy in Riverstone Plaza,34.25206938652871,-84.47679394491294,,,0,,0,
1082639,121,Publix,1451 Riverstone Pkwy in Riverstone Plaza,34.252642219700626,-84.47574569518649,,,0,,0,
1082640,132,Chevron @ Hickory Flat Rd,75 Hickory Flat Hwy near intersection with Marietta Rd,34.22864208251842,-84.49133587709696,,,0,,0,
1082641,130,Hillcrest Subdivision,Hickory Flat Hwy @ Hillcrest Dr,34.22143800234274,-84.46840064616177,,,0,,0,
1082642,129,Cherokee Overlook Subdivision,Cherokee Overlook Dr (100 yds North of Hickory Flat Hwy),34.22036763533126,-84.46345420428204,,,0,,0,
1082643,131,Laurels @ Greenwood Apts.,Hickory Flat Hwy @ Greenswood Dr,34.22383743769639,-84.47538532842675,,,0,,0,
1082644,102,East Marietta St & Main St,E Marietta St @ Main St,34.2366492335512,-84.48978879267843,,,0,,0,
1082645,214,Best Buy - Canton Marketplace,"1810 Cumming Hwy, Suite 600",34.23725395440635,-84.46098432439464,,,0,,0,
1082646,215,Target - Canton Marketplace,Commerce Drive @ Shelter,34.236170594982,-84.458359898787,,,0,,0,
1082647,128,L. Scott Mill Rd,L Scott Mill Rd (100 yard South of Hickory Flat Hwy_,34.222884046543676,-84.4837467392294,,,0,,0,
1082648,118,Riverstone Medical,Reinhardt College Pkwy @ Riverstone Terrace,34.25416503943,-84.479061502099,,,0,,0,
1082649,119,Bealls,1439 Riverstone Pkwy in Riverstone Plaza,34.25146156532227,-84.47746806267656,,,0,,0,
1082650,219,Ridge Pine Office Park,2920 Marietta Hwy,34.207956092566924,-84.50611267064677,,,0,,0,
1082651,125,Canton Mill Loft Apts. & Juniper St,Riverstone Pkwy @ Juniper St,34.2447468606242,-84.48646041468928,,,0,,0,
1082652,126,Pizza Hut,220 Marietta Hwy,34.242807916919446,-84.49588857870883,,,0,,0,
1082653,127,Cherokee High School,930 Marietta Hwy,34.23465345740635,-84.49996281765328,,,0,,0,
1082654,124,Starbucks @ Riverstone,1375 Riverstone Pkwy,34.24841999912124,-84.47853399999998,,,0,,0,
1082655,123,Cracker Barrel,Spring St @ Transit Ave,34.253537233452946,-84.4700578684009,,,0,,0,
CCT_1,,Cobb Pkwy & Parkway Pointe (AMC Theaters),,33.87783,-84.45668,,,0,,0,
CCT_10,,Cobb Pkwy & Kenwood Creek (Homeland Self Storage),,33.89546,-84.48027,,,0,,0,
CCT_100,,Roswell St & Cole St (Cobb Co Central Library),,33.95047,-84.54402,,,0,,0,
CCT_101,,Fairground St & Pierce St (Christian Alive Church),,33.94928,-84.53603,,,0,,0,
CCT_102,,Fairground St & Frasier St (First Christian),,33.94702,-84.53588,,,0,,0,
CCT_103,,Cobb Pkwy & Paces Mill Rd (Kroger),,33.87159,-84.45634,,,0,,0,
CCT_104,,S Marietta Pkwy & Parkway Plaza (Food Depot),,33.94304,-84.53289,,,0,,0,
CCT_105,,Fairground St & S Marietta Pkwy (Cobb Co DFACS),,33.94413,-84.53507,,,0,,0,
CCT_106,,Fairground St & Frasier St,,33.9462,-84.5355,,,0,,0,
CCT_107,,Fairground St & Pierce St (Jett Auto Care),,33.94902,-84.53589,,,0,,0,
CCT_108,,Roswell St & Rogers St (Confederate Cemetery),,33.95052,-84.53814,,,0,,0,
CCT_109,,Roswell St & Lakewood Dr (Confederate Cemetery),,33.95031,-84.54148,,,0,,0,
CCT_11,,Cobb Pkwy & Lake Park Dr (Steve Rayman Chevrolet),,33.89811,-84.48274,,,0,,0,
CCT_110,,Waverly Way & Atlanta St (Sherwin Williams),,33.95014,-84.54929,,,0,,0,
CCT_111,,Atlanta St & Waterman St (Ledfords Automotive),,33.94802,-84.54886,,,0,,0,
CCT_112,,Powder Springs St & Griggs (Conf Cemetery),,33.94486,-84.55115,,,0,,0,
CCT_113,,Powder Springs St & W Gramling St (Wynhaven),,33.94099,-84.55227,,,0,,0,
CCT_114,,Powder Springs St & Sandtown Rd (Big Lots),,33.93628,-84.55587,,,0,,0,
CCT_115,,Powder Springs St & Chestnut Hill Rd (Dollar Tree),,33.93379,-84.55988,,,0,,0,
CCT_116,,Powder Springs St & Booth Rd (Lake),,33.93151,-84.56366,,,0,,0,
CCT_117,,Powder Springs St & Laurel Springs Ln (Firestone),,33.92701,-84.57097,,,0,,0,
CCT_118,,Powder Springs Rd & Baltimore Pl (Goodyear),,33.92352,-84.57618,,,0,,0,
CCT_119,,Powder Springs Rd & Cunningham Rd (Aldi),,33.9221,-84.57826,,,0,,0,
CCT_12,,Cobb Pkwy & Ed Voyles Honda (Marietta Buick),,33.90078,-84.48521,,,0,,0,
CCT_120,,Powder Springs Rd & Chapel Dr (Napa Auto Care),,33.92148,-84.57905,,,0,,0,
CCT_121,,County Services Pkwy & Cobb Co Public Safety (DMV),,33.91455,-84.58223,,,0,,0,
CCT_122,,County Services Pkwy & Cobb Co Health Dept,,33.91235,-84.58223,,,0,,0,
CCT_123,,County Services Pkwy & Cobb Co Park & Recreation,,33.90967,-84.58243,,,0,,0,
CCT_124,,County Services Pkwy & Al Bishop Dr (Fleet Maint),,33.90389,-84.58209,,,0,,0,
CCT_125,,County Services Pkwy & Austell Rd (Texaco Station),,33.89865,-84.57337,,,0,,0,
CCT_126,,Austell Rd & Arkose Dr (Mexican Restaurant),,33.89703,-84.57509,,,0,,0,
CCT_127,,Windy Hill Rd & Cherrywood Ln,,33.89494,-84.57201,,,0,,0,
CCT_128,,Windy Hill Rd & Favor Rd (Osborne High School),,33.89484,-84.56664,,,0,,0,
CCT_129,,Windy Hill Rd & LaRose Dr,,33.89469,-84.55624,,,0,,0,
CCT_13,,Cobb Pkwy & Windy Hill Rd (Folks Restaurant),,33.90362,-84.48781,,,0,,0,
CCT_130,,Windy Hill Rd & Benson Poole Rd (Citgo Station),,33.89448,-84.54448,,,0,,0,
CCT_131,,Windy Hill Rd & Old Concord Rd (Hickory Lakes Apt),,33.89441,-84.5405,,,0,,0,
CCT_132,,Windy Hill Rd & Beaver Creek Rd (Self Storage),,33.89431,-84.53076,,,0,,0,
CCT_133,,Windy Hill Rd & After Belmont Cir (Belmont Hills),,33.8942,-84.52295,,,0,,0,
CCT_134,,Windy Hill Rd & Roswell St (Legacy Golf),,33.89561,-84.49977,,,0,,0,
CCT_135,,Windy Hill Rd & Cobb Pkwy (Checks Cashed),,33.90247,-84.48767,,,0,,0,
CCT_136,,Windy Hill Rd & Cobb Pkwy (Car Spa),,33.90331,-84.48561,,,0,,0,
CCT_137,,Windy Hill Rd & N Park Pl (Ed Voyles Honda),,33.90328,-84.48204,,,0,,0,
CCT_138,,Windy Hill Rd & S Park Pl (Windy Hill Hospital),,33.90121,-84.47958,,,0,,0,
CCT_139,,Windy Hill Rd & Corporate Plaza Pkwy (Panda Exp),,33.901,-84.47804,,,0,,0,
CCT_14,,Cobb Pkwy & Terrel Mill Rd (Chicago Plaza),,33.90623,-84.49029,,,0,,0,
CCT_140,,Windy Hill Rd & Circle 75 Pkwy (Arbys),,33.90081,-84.47561,,,0,,0,
CCT_141,,Windy Hill Rd & Interstate N Pkwy (Corp Spectrum),,33.90425,-84.46813,,,0,,0,
CCT_142,,Windy Hill Rd & Powers Ferry Rd,,33.90492,-84.46606,,,0,,0,
CCT_143,,Windy Hill Rd & Windy Ridge Pkwy (Flats),,33.906,-84.46237,,,0,,0,
CCT_144,,Spring Rd & Woodruff Dr (Galleria Courtyards),,33.88341,-84.48176,,,0,,0,
CCT_145,,Spring Rd & Carolyn Dr (International Farmers Mkt),,33.88347,-84.48687,,,0,,0,
CCT_146,,Spring Rd & Cumberland Valley Dr (Townhomes),,33.8838,-84.49966,,,0,,0,
CCT_147,,Spring Rd & Jonquil Dr (Dairy Queen),,33.88225,-84.50505,,,0,,0,
CCT_148,,Concord Rd & Atlanta Rd (State Farm Insurance),,33.88033,-84.51387,,,0,,0,
CCT_149,,Concord Rd & Evelyn St (First Class Hair Design),,33.87619,-84.52515,,,0,,0,
CCT_15,,Cobb Pkwy & Airport Ind Park Dr (Walmart),,33.90779,-84.49169,,,0,,0,
CCT_150,,S Cobb Dr & Mill Pond Rd (Wade Ford),,33.86091,-84.51873,,,0,,0,
CCT_151,,S Cobb Dr & Emory Hospital,,33.85683,-84.51441,,,0,,0,
CCT_152,,S Cobb Dr & King Springs Rd (Wade Ford),,33.86091,-84.51838,,,0,,0,
CCT_153,,S Cobb Dr & Lake Dr (Suntrust Bank),,33.87106,-84.52804,,,0,,0,
CCT_154,,S Cobb Dr & Concord Rd (Ruby Tuesday),,33.87611,-84.53138,,,0,,0,
CCT_155,,S Cobb Dr & Ask-Kay Dr (S Cobb Medical Bldg),,33.88009,-84.53294,,,0,,0,
CCT_156,,S Cobb Dr & Plaza Dr (Blockbuster Video),,33.88298,-84.534,,,0,,0,
CCT_157,,S Cobb Dr & Powder Springs St (Shell),,33.88731,-84.53564,,,0,,0,
CCT_158,,S Cobb Dr & Glendale Pl (S Cobb Festival Center),,33.89251,-84.53759,,,0,,0,
CCT_159,,S Cobb Dr & Windy Hill Rd (White Paint Center),,33.89511,-84.53857,,,0,,0,
CCT_16,,Cobb Pkwy & Cumberland Point Dr (NTB Tires),,33.90997,-84.49375,,,0,,0,
CCT_160,,S Cobb Dr & Old Concord Rd (Lupitas Restaurant),,33.90025,-84.54054,,,0,,0,
CCT_161,,S Cobb Dr & Pat Mell Rd (Wells Fargo Bank),,33.90328,-84.54169,,,0,,0,
CCT_162,,S Cobb Dr & Dink Ln (S Cobb Plaza),,33.90454,-84.54219,,,0,,0,
CCT_163,,S Cobb Dr & Harmony Meadows Apt (Amigo Auto),,33.90597,-84.54275,,,0,,0,
CCT_164,,S Cobb Dr & Waldrep Cir (Public Storage),,33.90928,-84.54409,,,0,,0,
CCT_165,,S Cobb Dr & Oak St (Browns Tire Shop),,33.91297,-84.54649,,,0,,0,
CCT_166,,S Cobb Dr & Oak St (Iglesia Central Church),,33.9143,-84.54732,,,0,,0,
CCT_167,,S Cobb Dr & Barber Rd (Co Adult Education Ctr),,33.91616,-84.54816,,,0,,0,
CCT_168,,S Cobb Dr & Austell Rd (Shell Station),,33.91861,-84.54894,,,0,,0,
CCT_169,,S Cobb Dr & Walthall Ave (High Tech Transmission),,33.92263,-84.55011,,,0,,0,
CCT_17,,Cobb Pkwy & After Cumberland Pt Dr (Public Stor.),,33.91131,-84.49497,,,0,,0,
CCT_170,,S Cobb Dr & Leader Rd (Sunoco Station),,33.92366,-84.55036,,,0,,0,
CCT_171,,S Cobb Dr & Leader Rd (Chevron Station),,33.92666,-84.55112,,,0,,0,
CCT_172,,S Cobb Dr & Beech Rd (McDonalds),,33.92854,-84.55096,,,0,,0,
CCT_173,,S Cobb Dr & Carruth Dr,,33.93055,-84.5502,,,0,,0,
CCT_174,,S Cobb Dr & Appleton Dr (Cumberland Lodge),,33.93238,-84.54862,,,0,,0,
CCT_175,,S Cobb Dr & Pearl St (Cobb Co Tag Office),,33.93486,-84.54326,,,0,,0,
CCT_176,,Fairground St & Commerce Park Dr (Credit Union),,33.93993,-84.53506,,,0,,0,
CCT_177,,Fairground St & S Marietta Pkwy (QT Station),,33.94236,-84.53499,,,0,,0,
CCT_178,,Fairground St & Commerce Park Dr (Civic Center),,33.94202,-84.53523,,,0,,0,
CCT_179,,Fairground St & Glover St (Marietta Daily Journal),,33.93868,-84.53524,,,0,,0,
CCT_18,,Cobb Pkwy & Davis Lane (Jiffy Lube),,33.91317,-84.49666,,,0,,0,
CCT_180,,Fairground St & S Cobb Dr (Lockheed),,33.93629,-84.53281,,,0,,0,
CCT_181,,S Cobb Dr & Atlanta St (Cobb Co Soil & Water),,33.93547,-84.5421,,,0,,0,
CCT_182,,S Cobb Dr & Pearl St (1848 House),,33.93421,-84.54629,,,0,,0,
CCT_183,,S Cobb Dr & Appleton Dr (Citgo Station),,33.93327,-84.54796,,,0,,0,
CCT_184,,S Cobb Dr & Garrison Lakes Apts,,33.93185,-84.54959,,,0,,0,
CCT_185,,S Cobb Dr & Beech Rd (Chattahoochee Tech),,33.92838,-84.5513,,,0,,0,
CCT_186,,S Cobb Dr & Booth Rd (Metro Wheels),,33.92561,-84.55128,,,0,,0,
CCT_187,,S Cobb Dr & Walthall Ave (Amigo Auto Sales),,33.92155,-84.5501,,,0,,0,
CCT_188,,S Cobb Dr & Austell Rd (Advance Auto Parts),,33.91721,-84.54877,,,0,,0,
CCT_189,,S Cobb Dr & Oak St (OReilly Auto Parts),,33.9123,-84.54635,,,0,,0,
CCT_19,,Cobb Pkwy & Franklin Rd (Pep Boys),,33.91534,-84.49867,,,0,,0,
CCT_190,,S Cobb Dr & Waldrep Cir (Texonito Plaza),,33.90923,-84.54439,,,0,,0,
CCT_191,,S Cobb Dr & Harmony Meadows Apt (Amigo Auto),,33.90583,-84.543,,,0,,0,
CCT_192,,S Cobb Dr & Pat Mell Rd (Firestone Tires),,33.90388,-84.54228,,,0,,0,
CCT_193,,S Cobb Dr & Benson Poole Rd (Cobb Center),,33.89981,-84.54075,,,0,,0,
CCT_194,,S Cobb Dr & Windy Hill Rd (Wendys),,33.89534,-84.53904,,,0,,0,
CCT_195,,S Cobb Dr & Glendale Pl (S Cobb Festival),,33.89194,-84.53776,,,0,,0,
CCT_196,,S Cobb Dr & Powder Springs St (Shell),,33.88718,-84.53599,,,0,,0,
CCT_197,,S Cobb Dr & Plaza Dr (Blockbuster Video),,33.88351,-84.53456,,,0,,0,
CCT_198,,S Cobb Dr & Ask-Kay Dr (Auto Expo),,33.88035,-84.53337,,,0,,0,
CCT_199,,S Cobb Dr & Church Rd (Chick-fil-A),,33.87725,-84.5322,,,0,,0,
CCT_2,,Cobb Pkwy & Riverwood Pkwy (Akers Mill Square),,33.87968,-84.45928,,,0,,0,
CCT_20,,Cobb Pkwy & Franklin Dr (Nalley Acura),,33.91798,-84.50115,,,0,,0,
CCT_200,,S Cobb Dr & Concord Rd (Advance Auto Parts),,33.87304,-84.5303,,,0,,0,
CCT_201,,Concord Rd & McCaulley Rd,,33.8758,-84.52194,,,0,,0,
CCT_202,,Spring Rd & Atlanta Rd (BP Station),,33.88011,-84.51178,,,0,,0,
CCT_203,,Spring Rd & Jonquil Rd (Dairy Queen),,33.88197,-84.50506,,,0,,0,
CCT_204,,Spring Rd & Village Pkwy (Springs Apts),,33.88355,-84.49922,,,0,,0,
CCT_205,,Spring Rd & Campbell Rd (Intl Farmers Mkt),,33.8832,-84.48704,,,0,,0,
CCT_206,,Six Flags Pkwy & S Service Rd (Six Flags Park),,33.77202,-84.55238,,,0,,0,
CCT_207,,S Service Rd & Riverside Pkwy (Wendys),,33.77289,-84.5583,,,0,,0,
CCT_208,,Six Flags Dr & Riverside Pkwy (Burkin Event Ctr),,33.77679,-84.56422,,,0,,0,
CCT_209,,Six Flags Dr & Six Flags Pkwy (Flags Village),,33.77785,-84.56656,,,0,,0,
CCT_21,,Cobb Pkwy & Spinks Dr (Jim Ellis Used Cars),,33.9237,-84.50583,,,0,,0,
CCT_210,,Six Flags Dr & Elsner Rd (Magnolia Crossing Apts),,33.77809,-84.56992,,,0,,0,
CCT_211,,Six Flags Dr & Factory Shoals Rd (Whisperwood Apt),,33.77833,-84.57384,,,0,,0,
CCT_214,,Factory Shoals Rd & Britt (Vision for Souls),,33.79573,-84.57173,,,0,,0,
CCT_215,,Factory Shoals Rd & Mableton Pkwy (Webbs Cleaners),,33.80106,-84.56765,,,0,,0,
CCT_216,,Mableton Pkwy & Old Powder Springs Rd (Gordon Vil),,33.80659,-84.57025,,,0,,0,
CCT_217,,Mableton Pkwy & Old Gordon Rd (Co Pulbic Safety),,33.81233,-84.57202,,,0,,0,
CCT_218,,Mableton Pkwy & Veterans Mem Hwy (Associated Phys),,33.81732,-84.57499,,,0,,0,
CCT_219,,Floyd Rd & Veterans Memorial Hwy (Captain Ds),,33.81922,-84.5761,,,0,,0,
CCT_22,,Cobb Pkwy & Wylie Rd (Autosmith),,33.92775,-84.508,,,0,,0,
CCT_220,,Floyd Rd & Fontaine Rd (Food Depot),,33.8234,-84.57538,,,0,,0,
CCT_221,,Mableton Park-N-Ride,,33.82606,-84.5757,,,0,,0,
CCT_222,,Floyd Rd & Ayres Rd (Publix),,33.83203,-84.57578,,,0,,0,
CCT_223,,"Floyd Rd & White Blvd (Kroger, Blockbuster Video)",,33.83557,-84.57598,,,0,,0,
CCT_224,,Floyd Rd & Hicks Rd (Rite Aid),,33.8413,-84.57922,,,0,,0,
CCT_225,,Floyd Rd & Bates Rd (Silver Comet Trail),,33.84697,-84.58511,,,0,,0,
CCT_226,,Floyd Rd & Trestle Dr,,33.85237,-84.5882,,,0,,0,
CCT_227,,Floyd Rd & East - West Conn (Walmart),,33.85492,-84.58882,,,0,,0,
CCT_228,,East - West Conn & Floyd Rd (Food Depot),,33.8554,-84.59345,,,0,,0,
CCT_229,,East - West Conn & Hospital South Dr (Lowes),,33.85508,-84.59939,,,0,,0,
CCT_23,,Cobb Pkwy & Barclay Cir (Team Nissan),,33.92979,-84.50908,,,0,,0,
CCT_230,,Austell Rd & East - West Conn (Title Max),,33.85489,-84.60244,,,0,,0,
CCT_231,,Austell Rd & Hospital South Dr (Cobb Hosp),,33.85636,-84.60149,,,0,,0,
CCT_232,,Austell Rd & Story Pl (Pep Boys),,33.85981,-84.5988,,,0,,0,
CCT_233,,Austell Rd & Floyd Rd (Citgo Station),,33.86398,-84.59521,,,0,,0,
CCT_234,,Austell Rd & Mimosa Dr (Cobb Market Fair Shopping),,33.86695,-84.59298,,,0,,0,
CCT_235,,Austell Rd & Amy Ln (Ivy Commons Apts),,33.86917,-84.5915,,,0,,0,
CCT_236,,Austell Rd & Westbrook Mobile Home Entrance,,33.8713,-84.59082,,,0,,0,
CCT_237,,Austell Rd & Lanier Dr,,33.87342,-84.59027,,,0,,0,
CCT_238,,Austell Rd & Byers Dr (Air Command),,33.87833,-84.58898,,,0,,0,
CCT_239,,Austell Rd & Milford Church Rd (Tire & Wheel),,33.88137,-84.58822,,,0,,0,
CCT_24,,Cobb Pkwy & After Barclay Cir (Team Ford),,33.93185,-84.51018,,,0,,0,
CCT_240,,Austell Rd & Crest Ridge Rd (Brunswick Bowling),,33.88548,-84.58621,,,0,,0,
CCT_241,,Austell Rd & E Callaway Rd (Fletch-Barney Plumb),,33.88827,-84.58338,,,0,,0,
CCT_242,,Austell Rd & Hicks Rd (Salvation Army Store),,33.89095,-84.57883,,,0,,0,
CCT_243,,Austell Rd & County Services Pkwy (Texaco Station),,33.89823,-84.57316,,,0,,0,
CCT_244,,Austell Rd & Lorene Dr (Open Bible Tabernacle),,33.90043,-84.57036,,,0,,0,
CCT_245,,Austell Rd & Pat Mell Rd (Crescent Square),,33.90348,-84.56652,,,0,,0,
CCT_246,,Austell Rd & Cunningham Rd,,33.90519,-84.56385,,,0,,0,
CCT_247,,Austell Rd & Austell Cir (All South Copiers),,33.90919,-84.55934,,,0,,0,
CCT_248,,Austell Rd & Sandtown Rd (Norman Campers),,33.91118,-84.55757,,,0,,0,
CCT_249,,Austell Rd & Cochran Rd (Family Dollar),,33.91322,-84.55533,,,0,,0,
CCT_25,,Cobb Pkwy & New Hope Rd (McDonalds),,33.93587,-84.51239,,,0,,0,
CCT_250,,Austell Rd & Knox Dr (Olive Springs Church),,33.91531,-84.55262,,,0,,0,
CCT_251,,Austell Rd & Pair St (Graystone Court Apts),,33.91756,-84.55069,,,0,,0,
CCT_252,,Austell Rd & Reed Rd (Fairoaks School),,33.9194,-84.54766,,,0,,0,
CCT_253,,Atlanta Rd & Austell Rd (Dobbins ARB Runway),,33.92281,-84.54266,,,0,,0,
CCT_254,,Atlanta St & S Cobb Dr (Co Water System),,33.93626,-84.54101,,,0,,0,
CCT_255,,S Marietta Pkwy & Atlanta St,,33.94766,-84.54781,,,0,,0,
CCT_256,,S Marietta Pkwy & Manget St (Shell Station),,33.94318,-84.53916,,,0,,0,
CCT_257,,S Marietta Pkwy & Manget St (Fairground Auto),,33.94337,-84.54034,,,0,,0,
CCT_258,,Atlanta St & S Marietta Pkwy (Law Offices),,33.94657,-84.5481,,,0,,0,
CCT_259,,Atlanta St & S Cobb Dr (Co Water System),,33.93724,-84.54195,,,0,,0,
CCT_26,,Cobb Pkwy & AMF Marietta Lanes,,33.9382,-84.51365,,,0,,0,
CCT_260,,Atlanta Rd & Clay Dr (Mobile Home Park),,33.9236,-84.54282,,,0,,0,
CCT_261,,Austell Rd & Joyner Ave (Animal Clinic),,33.92153,-84.54469,,,0,,0,
CCT_262,,Austell Rd & S Cobb Dr (Waffle House),,33.91916,-84.5485,,,0,,0,
CCT_263,,Austell Rd & Pair St (Quick Trip Station),,33.91839,-84.55019,,,0,,0,
CCT_264,,Austell Rd & Sandtown Rd (Payless Auto Repair),,33.91387,-84.55483,,,0,,0,
CCT_265,,Austell Rd & Austell Cir (Somerpoint Apts),,33.90925,-84.55961,,,0,,0,
CCT_266,,Austell Rd & Cunningham Rd (Summerhill Sr Com),,33.90559,-84.5637,,,0,,0,
CCT_267,,Austell Rd & Pat Mell Rd (Crescent Square),,33.90314,-84.56744,,,0,,0,
CCT_268,,Austell Rd & Kurt Dr (Dominican Hair Salon),,33.90041,-84.57072,,,0,,0,
CCT_269,,Austell Rd & Windy Hill Rd (Milford Elementary),,33.8949,-84.57674,,,0,,0,
CCT_27,,S Marietta Pkwy & Martin Ct (Auto Glass),,33.9425,-84.51903,,,0,,0,
CCT_270,,Austell Rd & Callaway Rd (Chevron Station),,33.88878,-84.58308,,,0,,0,
CCT_271,,Austell Rd & Waymar Dr (Brunswick Bowling Lanes),,33.88573,-84.58638,,,0,,0,
CCT_272,,Austell Rd & Mildord Church Rd (Shell Station),,33.882,-84.58835,,,0,,0,
CCT_273,,Austell Rd & Pair Rd (Citgo Station),,33.8768,-84.58968,,,0,,0,
CCT_274,,Austell Rd & Raes Creek Rd (Magnolia Lane Condos),,33.87135,-84.5911,,,0,,0,
CCT_275,,Austell Rd & Mimosa Dr (Little Learners),,33.86774,-84.59278,,,0,,0,
CCT_276,,Austell Rd & Reed Dr (Algs Package),,33.86509,-84.59461,,,0,,0,
CCT_277,,Austell Rd & Hurt Rd (Atlanta Title Loans),,33.86183,-84.59743,,,0,,0,
CCT_278,,Austell Rd & Mulkey Rd (Cobb Imaging Center),,33.8577,-84.60098,,,0,,0,
CCT_279,,Austell Rd & Hospital South Dr (Cobb Hosp),,33.85622,-84.60193,,,0,,0,
CCT_28,,S Marietta Pkwy & Lockheed Ave (Car Care Ctr),,33.94161,-84.5228,,,0,,0,
CCT_280,,"East - West Conn & Brookwood Dr (Lowes, Target)",,33.85489,-84.59889,,,0,,0,
CCT_281,,East - West Conn & Floyd Rd (Quick Trip Station),,33.856,-84.59044,,,0,,0,
CCT_282,,Floyd Rd & Willowbrook Ln,,33.85291,-84.58846,,,0,,0,
CCT_283,,Floyd Rd & Floyd Dr (Shell Station),,33.84668,-84.58511,,,0,,0,
CCT_284,,Floyd Rd & Hicks Dr (Rite Aid),,33.84061,-84.57846,,,0,,0,
CCT_285,,Floyd Rd & Nickajack Rd (Westside Baptist),,33.83447,-84.57615,,,0,,0,
CCT_286,,Floyd Rd & Patterns Dr (Aldi),,33.83125,-84.57601,,,0,,0,
CCT_287,,"Floyd Rd & Clay Rd (Post Office, Park-N-Ride)",,33.82628,-84.57595,,,0,,0,
CCT_288,,Floyd Rd & Fontaine Rd (Arbys),,33.82262,-84.57568,,,0,,0,
CCT_289,,Floyd Rd & Veterans Memorial Hwy (Title Max),,33.81953,-84.57636,,,0,,0,
CCT_29,,S Marietta Pkwy & Lake Dr (GA Landscape Supply),,33.941,-84.5258,,,0,,0,
CCT_290,,Mableton Pkwy & Glore Cir (Enterprise Car Rental),,33.81692,-84.57487,,,0,,0,
CCT_291,,Mableton Pkwy & Old Alabama Rd (CVS),,33.81148,-84.57216,,,0,,0,
CCT_292,,Mableton Pkwy & Old Powder Springs Rd (Tire Tech),,33.8087,-84.57178,,,0,,0,
CCT_293,,Mableton Pkwy & Lane Dr (Mickeys Marketplace),,33.80541,-84.5696,,,0,,0,
CCT_294,,Mableton Pkwy & Factory Shoals Rd (W Shoals Ctr),,33.8022,-84.56773,,,0,,0,
CCT_295,,Factory Shoals Rd & S Gordon Rd (Shell),,33.78983,-84.57582,,,0,,0,
CCT_296,,Six Flags Dr & Whisper Ct (Whisperwood Apts),,33.77823,-84.57413,,,0,,0,
CCT_297,,Six Flags Dr & Elsner Rd (Hunters Grove Apts),,33.77769,-84.57091,,,0,,0,
CCT_298,,Six Flags Dr & Six Flag Pkwy (Dollar General),,33.77777,-84.56682,,,0,,0,
CCT_299,,Paulding Ave & KSU Adm Bldg (Science & Math),,34.0367,-84.58349,,,0,,0,
CCT_3,,Akers Mill Rd & Mall Entrance (Sears),,33.87913,-84.46465,,,0,,0,
CCT_30,,Marietta Transfer Center,,33.94168,-84.52948,,,0,,0,
CCT_300,,Frey Lake Rd & Big Shanty Rd (KSU Facility Maint),,34.0302,-84.58466,,,0,,0,
CCT_301,,Chastain Rd & Town Point Dr (Springhill Suites),,34.03126,-84.58223,,,0,,0,
CCT_302,,Frey Rd & Campus Loop (KSU Ctrl Park Deck),,34.04193,-84.58084,,,0,,0,
CCT_303,,Frey Rd & Chastain Rd (Waffle House),,34.03393,-84.58044,,,0,,0,
CCT_304,,Busbee Pkwy & Greenhouse Dr (Greenhouse Apts),,34.04396,-84.57575,,,0,,0,
CCT_305,,Busbee Pkwy & Townpark Dr (Townpark Crossings Apt),,34.04153,-84.57442,,,0,,0,
CCT_306,,Busbee Dr & Townpark Ln (Residence Inn),,34.03626,-84.57507,,,0,,0,
CCT_308,,Busbee Pkwy & PGA Superstore (Burlington Ct Fctry),,34.02493,-84.56785,,,0,,0,
CCT_309,,Town Center Mall,,34.01836,-84.56587,,,0,,0,
CCT_31,,S Marietta Pkwy & Hudson Rd (Clay Plaza),,33.94069,-84.52469,,,0,,0,
CCT_310,,Busbee Pkwy & Town Center Dr (Town Center Oaks),,34.01354,-84.56645,,,0,,0,
CCT_312,,Barrett Pkwy & Mall Blvd (Pep Boys Auto),,34.01343,-84.56202,,,0,,0,
CCT_313,,Barrett Pkwy & Barrett Creek Dr (Barrett Creek),,34.01386,-84.55559,,,0,,0,
CCT_314,,Barrett Pkwy & Bells Ferry Rd (Carols Cafe),,34.01377,-84.5496,,,0,,0,
CCT_315,,Bells Ferry Rd & Barrett Pkwy (Quick Thrift Foods),,34.01303,-84.54849,,,0,,0,
CCT_316,,Bells Ferry Rd & Arnold Ave (St Paul UMC),,34.00197,-84.54545,,,0,,0,
CCT_317,,Bells Ferry Rd & Laurel Hills Preserve,,33.99947,-84.54622,,,0,,0,
CCT_318,,Bells Ferry Rd & Oak Harbor Trl,,33.99696,-84.54765,,,0,,0,
CCT_319,,Bells Ferry Rd & Bridgestone Dr,,33.99322,-84.5499,,,0,,0,
CCT_32,,S Marietta Pkwy & Main Ent Southern Polytechnic U,,33.9416,-84.52228,,,0,,0,
CCT_320,,Bells Ferry Rd & Cobb Pkwy (McDonalds),,33.98243,-84.55782,,,0,,0,
CCT_321,,Church St Ext & Loudermilk Dr (Extension),,33.97833,-84.55701,,,0,,0,
CCT_322,,Church St Ext & Elizabeth St (Dixie Exterminators),,33.97364,-84.55187,,,0,,0,
CCT_323,,Church St & Whitcher St (Kennestone Hospital),,33.96868,-84.55033,,,0,,0,
CCT_324,,Church St & Hillside Ave,,33.96539,-84.55013,,,0,,0,
CCT_325,,Church St & Sessions St,,33.96123,-84.55018,,,0,,0,
CCT_326,,Church St & Kennesaw Ave (First Presbyterian),,33.95715,-84.55028,,,0,,0,
CCT_329,,S Service Rd & Riverside Pkwy (Wendys),,33.77269,-84.55861,,,0,,0,
CCT_33,,S Marietta Pkwy & Technology Pkwy (White Circle),,33.94216,-84.51847,,,0,,0,
CCT_330,,Cherokee St & Montgomery St,,33.95992,-84.54869,,,0,,0,
CCT_331,,Cherokee St & Freyer Dr,,33.96309,-84.54792,,,0,,0,
CCT_332,,Cherokee St & Chicopee Dr,,33.96569,-84.54783,,,0,,0,
CCT_333,,Cherokee St & Lewis Dr (Kennestone Prof Building),,33.96971,-84.54998,,,0,,0,
CCT_334,,Church St Ext & Elizabeth St (First Cherokee),,33.97428,-84.55219,,,0,,0,
CCT_335,,Bells Ferry Rd & Old 41 Hwy (Interlink Control),,33.97977,-84.55872,,,0,,0,
CCT_336,,"Bells Ferry Rd & Cobb Pkwy (McDonalds, BP)",,33.98203,-84.55778,,,0,,0,
CCT_337,,Bells Ferry Rd & Adair Dr (Tommy Nobis Center),,33.98649,-84.55517,,,0,,0,
CCT_338,,Bells Ferry Rd & Bridgestone Dr (Marathon Station),,33.9934,-84.54962,,,0,,0,
CCT_339,,Bells Ferry Rd & Mark Ave (Laurell Hills Preserve),,33.99801,-84.54681,,,0,,0,
CCT_34,,Cobb Pkwy & S Marietta Pkwy (Picadilly Cafeteria),,33.93972,-84.5148,,,0,,0,
CCT_340,,Bells Ferry Rd & Arnold Ave (St Paul UMC),,34.00149,-84.54539,,,0,,0,
CCT_341,,Bells Ferry Rd & Bristol Ln,,34.00963,-84.5474,,,0,,0,
CCT_342,,Bells Ferry Rd & Highoak Dr (CVS),,34.01253,-84.54836,,,0,,0,
CCT_343,,Barrett Pkwy & Prado Ln (Prado Shopping Center),,34.0142,-84.55148,,,0,,0,
CCT_344,,Barrett Pkwy & Chastain Meadows Pkwy (Burger King),,34.01414,-84.55498,,,0,,0,
CCT_345,,Barrett Pkwy & Busbee Pkwy (Honeybaked Ham),,34.01255,-84.56374,,,0,,0,
CCT_346,,Busbee Pkwy & Town Center Dr (Bank of America),,34.01306,-84.56551,,,0,,0,
CCT_347,,Busbee Pkwy & Garden Ridge (Suburban Ext Stay),,34.0234,-84.56756,,,0,,0,
CCT_348,,Busbee Pkwy & Big Shanty Rd (KSU Soccer Facility),,34.02778,-84.56816,,,0,,0,
CCT_349,,Busbee Dr & KSU Center (Millstead Village Apts),,34.03151,-84.57261,,,0,,0,
CCT_35,,Cobb Pkwy & Lifes Way (Marietta Toyota),,33.93502,-84.51221,,,0,,0,
CCT_350,,Busbee Dr & Town Park Ln (Zaxbys),,34.03613,-84.57475,,,0,,0,
CCT_351,,Townpark Dr & Business Park (Bank of America),,34.04172,-84.56973,,,0,,0,
CCT_352,,Busbee Pkwy & Townpark Dr (Business Park),,34.04243,-84.57427,,,0,,0,
CCT_353,,Busbee Pkwy & Poplar Pl Entrance,,34.04617,-84.57744,,,0,,0,
CCT_354,,Frey Rd & Campus Loop (KSU Ctrl Park Deck),,34.04218,-84.58117,,,0,,0,
CCT_356,,Big Shanty Rd & Busbee Pkwy (Dept of Labor),,34.02779,-84.56664,,,0,,0,
CCT_357,,Chastain Meadows Pkwy & Chastain Meadows Ct,,34.03042,-84.55615,,,0,,0,
CCT_358,,Barrett Lakes Blvd & Chastain Rd (Super 8 Motel),,34.03043,-84.57823,,,0,,0,
CCT_359,,Barrett Lakes Blvd & Duncan Rd (JVC Bldg),,34.0193,-84.57567,,,0,,0,
CCT_36,,Cobb Pkwy & Former Team Nissan (Ed Voyles Cars),,33.93248,-84.51081,,,0,,0,
CCT_360,,Cobb Place Blvd & Barrett Pkwy (Target),,34.00918,-84.5719,,,0,,0,
CCT_361,,Vaughn Rd & Barrett Corners Dr (Arbys),,34.00153,-84.59073,,,0,,0,
CCT_362,,Cobb Pkwy & White Cir (Town Center Storage),,33.98821,-84.57419,,,0,,0,
CCT_363,,Cobb Pkwy & Bells Ferry Rd (Gold & Coin Exchange),,33.98036,-84.5569,,,0,,0,
CCT_364,,Cobb Pkwy & Elizabeth Church Rd (Must Ministries),,33.97859,-84.55282,,,0,,0,
CCT_365,,Cobb Pkwy & Industrial Park Dr (Coca Cola),,33.97538,-84.54563,,,0,,0,
CCT_366,,Cobb Pkwy & Allgood Rd (Quick Trip Station),,33.96893,-84.53776,,,0,,0,
CCT_367,,Cobb Pkwy & ABC Recycling,,33.96618,-84.53472,,,0,,0,
CCT_368,,N Marietta Pkwy & Allgood Rd (Turbo Tires),,33.95888,-84.54024,,,0,,0,
CCT_369,,N Marietta Pkwy & Cole St (First Landmark),,33.95895,-84.54319,,,0,,0,
CCT_37,,Cobb Pkwy & Wylie Rd (Autosmith),,33.92802,-84.50845,,,0,,0,
CCT_370,,Chastain Rd & Busbee Pkwy (Panera Bread),,34.03682,-84.56858,,,0,,0,
CCT_371,,N Marietta Pkwy & Cherokee St (Police Dept),,33.95885,-84.54809,,,0,,0,
CCT_372,,N Marietta Pkwy & Cole St (First Landmark),,33.95875,-84.54375,,,0,,0,
CCT_373,,Cobb Pkwy & Seminole Pl (ABC Recycling),,33.96618,-84.53435,,,0,,0,
CCT_374,,Cobb Pkwy & Industrial Park Dr (Sun Inn),,33.97133,-84.54,,,0,,0,
CCT_375,,Cobb Pkwy & Industrial Park Dr (Coca Cola),,33.97463,-84.54379,,,0,,0,
CCT_376,,Cobb Pkwy & Kennestone Cir (Must Ministries),,33.97948,-84.55397,,,0,,0,
CCT_377,,Cobb Pkwy & Bells Ferry Rd (Pro Core Solutions),,33.98213,-84.55983,,,0,,0,
CCT_378,,Cobb Pkwy & White Cir (Progressive Insurance),,33.99096,-84.57776,,,0,,0,
CCT_379,,Vaughn Rd & Roberts Blvd (Barrett Office Center),,34.00395,-84.59049,,,0,,0,
CCT_38,,Cobb Pkwy & Spinks Dr (GA 280 S Ramp),,33.92405,-84.50633,,,0,,0,
CCT_380,,Barrett Pkwy & Barrett Lakes Blvd (Subaru),,34.00338,-84.57849,,,0,,0,
CCT_381,,Cobb Place Blvd & Sports Authority (Target),,34.00972,-84.57188,,,0,,0,
CCT_382,,Cobb Place Blvd & Barrett Lakes Blvd (Hobby Lobby),,34.01162,-84.57574,,,0,,0,
CCT_383,,Barrett Lakes Blvd & Duncan Rd (JVC Bldg),,34.01897,-84.57529,,,0,,0,
CCT_384,,Barrett Lakes Blvd & Chastain Rd (Sun Suites),,34.02968,-84.57737,,,0,,0,
CCT_385,,Busbee Pkwy & Big Shanty Rd (Childrens Healthcare),,34.02674,-84.56801,,,0,,0,
CCT_386,,Busbee Pkwy & Town Center Dr,,34.02151,-84.56786,,,0,,0,
CCT_389,,Akers Mill Rd & Galleria Dr (Sports Authority),,33.88332,-84.46192,,,0,,0,
CCT_39,,Cobb Pkwy & Franklin Dr (Dobbins ARB),,33.91898,-84.50239,,,0,,0,
CCT_390,,Akers Mill Rd & Cobb Galleria Pkwy (Embassy Sts),,33.88446,-84.46028,,,0,,0,
CCT_391,,Cobb Galleria Pkwy & Riverwood Pkwy (BB&T),,33.8809,-84.45676,,,0,,0,
CCT_392,,Akers Mill Rd & Tower Creek Pkwy (Strayer),,33.89192,-84.45463,,,0,,0,
CCT_393,,Akers Mill Rd & Akers Dr (The Highlands),,33.89363,-84.45327,,,0,,0,
CCT_394,,Akers Mill Rd & Walton on the Chattahoochee,,33.89673,-84.44977,,,0,,0,
CCT_395,,Akers Mill Rd & Powers Ferry Rd (Food Store),,33.89873,-84.44742,,,0,,0,
CCT_396,,Powers Ferry Rd & Rivers Apts Entrance,,33.90143,-84.44961,,,0,,0,
CCT_397,,Powers Ferry Rd & Windy Ridge Pkwy (The Shoppes),,33.90267,-84.45507,,,0,,0,
CCT_398,,Powers Ferry Rd & Parkwood Cir (CVS),,33.90378,-84.46011,,,0,,0,
CCT_399,,Powers Ferry Rd & Windy Hill Rd (Houstons),,33.90515,-84.46324,,,0,,0,
CCT_4,,Cumberland Transfer Center,,33.87822,-84.47005,,,0,,0,
CCT_40,,Cobb Pkwy & Franklin Dr (Nalley Infinity),,33.91715,-84.50072,,,0,,0,
CCT_400,,Powers Ferry Rd & Powers Ridge Office Park,,33.90908,-84.465,,,0,,0,
CCT_401,,Powers Ferry Rd & Wildwood Pkwy (Governors Ridge),,33.91352,-84.46503,,,0,,0,
CCT_403,,Powers Ferry Rd & Terrell Mill Rd (BP Station),,33.91897,-84.46687,,,0,,0,
CCT_404,,Powers Ferry Rd & Powers Ferry Common (Microctr),,33.92212,-84.4678,,,0,,0,
CCT_405,,Delk Rd & Powers Ferry Rd (Kroger),,33.92409,-84.4706,,,0,,0,
CCT_406,,Delk Rd & Brunswick Bowling Lane (Firestone),,33.923,-84.474,,,0,,0,
CCT_407,,Delk Rd & Bentley Rd (The Abbey Apts),,33.9226,-84.47631,,,0,,0,
CCT_408,,Delk Rd & Northcase Pkwy (Courtyard by Marriot),,33.92279,-84.47993,,,0,,0,
CCT_409,,Delk Rd & Powers Ferry Pl (Drury Inn & Suites),,33.9228,-84.48206,,,0,,0,
CCT_41,,Cobb Pkwy & Franklin Rd (Pep Boys),,33.91499,-84.49872,,,0,,0,
CCT_410,,Franklin Rd & Kingston Ct (Franklin Station),,33.92458,-84.49196,,,0,,0,
CCT_411,,Franklin Rd & Autumn View Apts,,33.92704,-84.49255,,,0,,0,
CCT_412,,Franklin Rd & Franklin Plaza,,33.92811,-84.49362,,,0,,0,
CCT_413,,Franklin Rd & Franklin Ct (The Crossings),,33.93135,-84.49732,,,0,,0,
CCT_414,,Franklin Rd & Flagstone Village Apts,,33.93277,-84.5002,,,0,,0,
CCT_415,,Franklin Rd & Ashton Place Apts,,33.93437,-84.50311,,,0,,0,
CCT_416,,Franklin Rd & Twin Brooks Dr (Quick Trip),,33.93586,-84.50422,,,0,,0,
CCT_417,,Franklin Rd & Parkway Pl (Nazareth Plaza),,33.93791,-84.50687,,,0,,0,
CCT_418,,S Marietta Pkwy & Wylie Rd (American Business Ctr),,33.94032,-84.51162,,,0,,0,
CCT_419,,Cobb Pkwy & S Marietta Pkwy (Exxon Station),,33.94268,-84.51598,,,0,,0,
CCT_42,,Cobb Pkwy & Enterprise Way (Cumberland Bus. Park),,33.91266,-84.49655,,,0,,0,
CCT_420,,Cobb Pkwy & Freys Gin Rd (Krystal),,33.94535,-84.51743,,,0,,0,
CCT_421,,Cobb Pkwy & Marietta Trade Center (Sonic),,33.94617,-84.51791,,,0,,0,
CCT_422,,Cobb Pkwy & Marietta Trade Center (Arbys),,33.94836,-84.51908,,,0,,0,
CCT_423,,Cobb Pkwy & Radar Cir (Big Chicken),,33.95186,-84.52094,,,0,,0,
CCT_424,,Cobb Pkwy & White Water Plaza (Concentra),,33.95555,-84.52299,,,0,,0,
CCT_425,,Cobb Pkwy & N Marietta Pkwy (Mountain Motor),,33.95974,-84.5272,,,0,,0,
CCT_426,,Cobb Pkwy & N Marietta Pkwy (Enterprise),,33.96188,-84.52957,,,0,,0,
CCT_427,,Cobb Pkwy & Seminole Pl (Shell Station),,33.96429,-84.53224,,,0,,0,
CCT_428,,Fairground St & Seminole Dr (Hillcrest Apts),,33.96575,-84.5371,,,0,,0,
CCT_429,,Fairground St & Freyer Dr (Custer Park),,33.96352,-84.53699,,,0,,0,
CCT_43,,Cobb Pkwy & Cumberland Point Dr (NTB Tires),,33.91,-84.49411,,,0,,0,
CCT_430,,Fairground St & Birney St,,33.96038,-84.53705,,,0,,0,
CCT_431,,Fairground St & N Marietta Pkwy (Turner Cpl),,33.95926,-84.53705,,,0,,0,
CCT_432,,Fairground St & Rigby St,,33.95672,-84.53563,,,0,,0,
CCT_433,,Fairground St & Lawrence St (Citgo Station),,33.95369,-84.53477,,,0,,0,
CCT_434,,Fairground St & Fort St (Carwash),,33.95389,-84.53454,,,0,,0,
CCT_435,,Fairground St & Birney St - 435,,33.96013,-84.53683,,,0,,0,
CCT_436,,Fairground St & Seminole Dr (Hillcrest Apts),,33.96566,-84.53687,,,0,,0,
CCT_437,,Allgood Rd & Fairground St (Coin Laundry),,33.96708,-84.5372,,,0,,0,
CCT_438,,Cobb Pkwy & Seminole Dr (Crown Inn),,33.96426,-84.53257,,,0,,0,
CCT_439,,Cobb Pkwy & N Marietta Pkwy (Enterprise),,33.96211,-84.53025,,,0,,0,
CCT_44,,Cobb Pkwy & Airport Ind Park Dr (Jim Ellis VW),,33.90763,-84.49194,,,0,,0,
CCT_440,,Cobb Pkwy & Richard St (Southland Custom Homes),,33.95744,-84.52504,,,0,,0,
CCT_441,,Cobb Pkwy & Gresham Rd (Advance Auto Parts),,33.95348,-84.52212,,,0,,0,
CCT_442,,Cobb Pkwy & Roswell Rd (Velox Auto Insurance),,33.95209,-84.5214,,,0,,0,
CCT_443,,Cobb Pkwy & Marietta Trade Center (Walmart),,33.94577,-84.51805,,,0,,0,
CCT_444,,S Marietta Pkwy & Cobb Pkwy (Maaco Auto Paint),,33.94075,-84.51362,,,0,,0,
CCT_445,,S Marietta Pkwy & Wylie Rd (Marietta Comm Plaza),,33.93992,-84.51172,,,0,,0,
CCT_446,,Franklin Rd & S Marietta Pkwy (Marietta Flea Mrkt),,33.93853,-84.50766,,,0,,0,
CCT_447,,Franklin Rd & Ridge Pointe Apts,,33.93401,-84.50301,,,0,,0,
CCT_448,,Franklin Rd & Cinnamon Ridge (Notting Hills Apts),,33.93329,-84.50171,,,0,,0,
CCT_449,,Franklin Rd & Franklin Ct (Franklin Auto Repair),,33.93016,-84.49639,,,0,,0,
CCT_45,,Cobb Pkwy & Caswell Pkwy (Goodyear),,33.90695,-84.49132,,,0,,0,
CCT_450,,Franklin Rd & Marquis Place Entrance,,33.92916,-84.49524,,,0,,0,
CCT_451,,Franklin Rd & Delk Industrial Blvd (Big A Carwash),,33.92628,-84.49235,,,0,,0,
CCT_452,,Franklin Rd & Kingston Ct (Franklin Station),,33.92456,-84.49215,,,0,,0,
CCT_453,,"Delk Rd & Franklin Rd (La Quinta, Cracker Barrel)",,33.92252,-84.49093,,,0,,0,
CCT_454,,Delk Rd & N Chase Pkwy (Jiffy Lube),,33.92251,-84.47965,,,0,,0,
CCT_455,,Delk Rd & Bentley Rd (The Concepts Building),,33.92255,-84.47513,,,0,,0,
CCT_456,,"Delk Rd & Powers Ferry Rd (Kroger, Waffle House)",,33.92395,-84.46997,,,0,,0,
CCT_457,,Powers Ferry Rd & Powers Ferry Common (China Doll),,33.92206,-84.46808,,,0,,0,
CCT_458,,Powers Ferry Rd & Terrell Mill Rd (Park),,33.91888,-84.46722,,,0,,0,
CCT_459,,Powers Ferry Rd & Terrell Mill Rd (Sun Trust Bank),,33.91689,-84.46675,,,0,,0,
CCT_46,,Cobb Pkwy & Terrell Mill Rd (GA Memorial Cemetery),,33.90517,-84.48962,,,0,,0,
CCT_460,,Powers Ferry Rd & Wildwood Pkwy (Fidelity Bank),,33.91325,-84.46537,,,0,,0,
CCT_461,,Powers Ferry Rd & Windy Hill Rd (Bank of America),,33.90498,-84.46359,,,0,,0,
CCT_462,,Powers Ferry Rd & Parkwood Cir (CVS),,33.90348,-84.46013,,,0,,0,
CCT_463,,Powers Ferry Rd & Shadowood Pkwy (The Shoppes),,33.90228,-84.45454,,,0,,0,
CCT_464,,Powers Ferry Rd & Shadowood Office Park (CMU),,33.90109,-84.44965,,,0,,0,
CCT_465,,Akers Mill Rd & Walton on the Chattahoochee,,33.8971,-84.4496,,,0,,0,
CCT_466,,Akers Mill Rd & The Columns,,33.89549,-84.45144,,,0,,0,
CCT_467,,Cumberland Blvd & One Overton Park,,33.88434,-84.45268,,,0,,0,
CCT_468,,Cobb Galleria Pkwy & Riverwood Pkwy (Gal 75),,33.881,-84.45656,,,0,,0,
CCT_469,,Akers Mill Rd & Galleria Dr (Galleria Office Park),,33.88367,-84.46185,,,0,,0,
CCT_47,,Cobb Pkwy & Windy Hill Rd (Boomers),,33.90155,-84.48632,,,0,,0,
CCT_470,,Spring Rd & Spring Creek Pl,,33.8836,-84.49169,,,0,,0,
CCT_471,,Spring Rd & Countryside Ln (Condos),,33.88359,-84.49177,,,0,,0,
CCT_472,,Windsor St & Castleberry St (Near West End Stn),,33.74752,-84.39769,,,0,,0,
CCT_473,,Windsor St & Brotherton St (Norfolk Southern),,33.74892,-84.39786,,,0,,0,
CCT_474,,Trinity St & Forsyth St,,33.75056,-84.39562,,,0,,0,
CCT_475,,Forsyth St & Mitchell St (222 Mitchell St Bldg),,33.75158,-84.39421,,,0,,0,
CCT_476,,Forsyth St & MLK Jr Dr (MLK Jr Federal Bldg),,33.75271,-84.3937,,,0,,0,
CCT_477,,Forsyth St & Marietta St (Five Points Plaza Bldg),,33.75535,-84.39099,,,0,,0,
CCT_478,,Marietta St & Cone St (State Bar of Georgia Bldg),,33.75604,-84.39213,,,0,,0,
CCT_479,,Spring St & Luckie St (LAZ Parking),,33.75828,-84.39068,,,0,,0,
CCT_48,,Cobb Pkwy & Car Lot (Steve Rayman Chevrolet),,33.8993,-84.4842,,,0,,0,
CCT_480,,Spring St & Carnegie Way (Hampton Inn & Suites),,33.75911,-84.38956,,,0,,0,
CCT_481,,Spring St & John Portman Blvd (Mart Bldg 1),,33.76113,-84.38914,,,0,,0,
CCT_482,,Spring St & Baker St (Mart Bldg 3),,33.76219,-84.38896,,,0,,0,
CCT_483,,W Peachtree St & 3rd St (AT&T Bldg),,33.7736,-84.38722,,,0,,0,
CCT_484,,W Peachtree St & 4th St (GA Tech Hotel & Conf),,33.77489,-84.38725,,,0,,0,
CCT_485,,W Peachtree St & 5th St (Tech Square),,33.77645,-84.38738,,,0,,0,
CCT_486,,W Peachtree St & 13th St (Carolyns Restaurant),,33.78608,-84.38769,,,0,,0,
CCT_487,,W Peachtree St & 14th St (One Atlantic Center),,33.78712,-84.38754,,,0,,0,
CCT_488,,MARTA Arts Center Station (On Street),,33.78917,-84.38769,,,0,,0,
CCT_489,,Spring St & 17th St,,33.79199,-84.38905,,,0,,0,
CCT_49,,"Cobb Pkwy & Lake Park Dr (Checkers, Clock Tower)",,33.89786,-84.48292,,,0,,0,
CCT_490,,Centennial Olympic Park & Baker St (World of Coke),,33.76243,-84.39232,,,0,,0,
CCT_491,,Centennial Olympic Park Dr & John Portman Blvd,,33.7611,-84.39203,,,0,,0,
CCT_492,,Centennial Olympic Park Dr & Andrew Young Intl,,33.75992,-84.39215,,,0,,0,
CCT_493,,Marietta St & Spring St (Phillips Arena),,33.75701,-84.39288,,,0,,0,
CCT_494,,Marietta St & Fairlie St (Atlanta Journal Const),,33.75592,-84.39162,,,0,,0,
CCT_495,,Marietta St & Peachtree St,,33.75439,-84.39003,,,0,,0,
CCT_496,,Marietta St & Pryor St (One Park Place),,33.75393,-84.38921,,,0,,0,
CCT_497,,Pryor St & Alabama St (MARTA Five Points Station),,33.75257,-84.39008,,,0,,0,
CCT_498,,Pryor St & MLK Jr Dr (Fulton County Bldg),,33.75146,-84.39112,,,0,,0,
CCT_499,,Spring St & Linden St,,33.79103,-84.38939,,,0,,0,
CCT_5,,Cumberland Blvd & Spring Hill Pkwy (Carrabbas),,33.8813,-84.4746,,,0,,0,
CCT_50,,Cobb Pkwy & Wyndcliff Galleria (Homeland Storage),,33.895,-84.48024,,,0,,0,
CCT_500,,Forsyth St & MLK Jr Dr (MLK Jr Federal Bldg),,33.75241,-84.39393,,,0,,0,
CCT_501,,Forsyth St & Trinity Ave,,33.75065,-84.39516,,,0,,0,
CCT_502,,Forsyth St & Garnett St,,33.74947,-84.396,,,0,,0,
CCT_503,,"Forsyth St & Brotherton St (Greyhound, MARTA)",,33.74888,-84.39655,,,0,,0,
CCT_504,,Ivan Allen Jr Blvd & Alexander St,,33.76493,-84.38686,,,0,,0,
CCT_505,,Peachtree St & Baker St (Suntrust Bldg),,33.76269,-84.38737,,,0,,0,
CCT_506,,John Portman Blvd & Courtland St (Marquis 1),,33.76089,-84.38435,,,0,,0,
CCT_507,,Courtland St & Ellis St (Sheraton Atlanta),,33.75838,-84.38423,,,0,,0,
CCT_508,,Courtland St & Auburn Ave (Atlanta Life),,33.75587,-84.38432,,,0,,0,
CCT_509,,Courtland St & Gilmer St (Park),,33.75366,-84.38528,,,0,,0,
CCT_51,,Cobb Pkwy & Hargrove Rd (Best Buy),,33.89179,-84.47732,,,0,,0,
CCT_510,,Courtland St & MLK Jr Dr (Georgia Capitol),,33.75039,-84.38826,,,0,,0,
CCT_511,,MLK Jr Dr & Peachtree St (Capital City Bank),,33.75177,-84.3919,,,0,,0,
CCT_512,,MLK Jr Dr & Forsyth St (MLK Jr Federal Bldg),,33.7526,-84.3931,,,0,,0,
CCT_513,,Mitchell St & Pryor St,,33.75033,-84.3921,,,0,,0,
CCT_514,,Central Ave & Wall St,,33.75243,-84.38833,,,0,,0,
CCT_515,,Peachtree Center Ave & Auburn Ave,,33.75536,-84.38608,,,0,,0,
CCT_516,,Peachtree Center Ave & John Wesley Dobbs Ave,,33.75686,-84.38593,,,0,,0,
CCT_517,,Peachtree Center Ave & Andrew Young Intl Blvd,,33.75956,-84.38612,,,0,,0,
CCT_518,,Baker St & Peachtree St (Suntrust Bldg),,33.76244,-84.38707,,,0,,0,
CCT_519,,10th St & Spring St,,33.78163,-84.38862,,,0,,0,
CCT_52,,Cobb Pkwy & Cumberland Pkwy (Hargrove Plaza),,33.88952,-84.47526,,,0,,0,
CCT_520,,10th St & Williams St,,33.78163,-84.38995,,,0,,0,
CCT_521,,15th St & Peachtree St,,33.78834,-84.38408,,,0,,0,
CCT_522,,Peachtree St & 14th St,,33.78626,-84.38317,,,0,,0,
CCT_523,,Peachtree St & 13th St,,33.78557,-84.38327,,,0,,0,
CCT_524,,Peachtree St & 12th St,,33.78449,-84.38294,,,0,,0,
CCT_525,,Peachtree St & 10th St,,33.78177,-84.38415,,,0,,0,
CCT_526,,Mitchell St & Washington St,,33.74891,-84.3895,,,0,,0,
CCT_527,,Central Ave & Garnett St,,33.74772,-84.39214,,,0,,0,
CCT_528,,Central Ave & Trinity Ave,,33.74844,-84.39158,,,0,,0,
CCT_529,,Central Ave & Mitchell St,,33.7495,-84.39071,,,0,,0,
CCT_53,,Cobb Pkwy & Spring Rd (Steak N Shake),,33.88711,-84.47307,,,0,,0,
CCT_530,,MLK Jr Dr & Pryor St,,33.75147,-84.3908,,,0,,0,
CCT_531,,MARTA Midtown Station,,33.78163,-84.38862,,,0,,0,
CCT_532,,Mitchell St & Central Ave (Mamma Mias Restaurant),,33.74964,-84.39079,,,0,,0,
CCT_535,,Akers Mill Rd & Tower Creek Pkwy (Strayer Univ),,33.89202,-84.45476,,,0,,0,
CCT_536,,Anderson St & Atlanta St (Museum of Art),,33.95156,-84.54891,,,0,,0,
CCT_537,,Anderson St & Roswell St (Courthouse Parking),,33.95154,-84.54729,,,0,,0,
CCT_538,,Roswell St & Alexander St (Bank of N GA ATM),,33.95098,-84.54487,,,0,,0,
CCT_539,,Six Flags Dr & Riverside Pkwy (Quick Trip Station),,33.77625,-84.56351,,,0,,0,
CCT_54,,Spring Rd & Cobb Pkwy (Nalley Lexus),,33.88568,-84.47279,,,0,,0,
CCT_540,,Church St Ext & Loudermilk Dr (Extension),,33.97844,-84.55695,,,0,,0,
CCT_541,,Big Shanty Rd & Busbee Pkwy (Dept of Labor),,34.02764,-84.56671,,,0,,0,
CCT_542,,Vaughn Rd & Cobb Pkwy (Arbys),,34.00163,-84.5906,,,0,,0,
CCT_544,,Busbee Park-N-Ride,,34.02917,-84.56979,,,0,,0,
CCT_545,,Riverwood Pkwy & Riverwood 100 Bldg Entr,,33.8784,-84.45888,,,0,,0,
CCT_546,,Circle 75 Pkwy & 1000 Bldg Entr,,33.8896,-84.46623,,,0,,0,
CCT_547,,Circle 75 Pkwy & Windy Hill Rd (Country Inn),,33.89974,-84.4746,,,0,,0,
CCT_548,,The Exchange & 1945 Bldg Entr,,33.90491,-84.47752,,,0,,0,
CCT_549,,The Exchange & 1785 Bldg Entr (Suntrust Offices),,33.909,-84.47976,,,0,,0,
CCT_55,,Cumberland Blvd & Spring Hill Pkwy,,33.88054,-84.4741,,,0,,0,
CCT_550,,Terrell Mill Rd & Laurel Valley (Quintiles),,33.91141,-84.4819,,,0,,0,
CCT_551,,Bentley Rd & Terrell Mill Rd,,33.91406,-84.47182,,,0,,0,
CCT_552,,Bentley Rd & Moss Ln (Bentley Woods Condos),,33.9186,-84.47579,,,0,,0,
CCT_553,,Circle 75 Pkwy & 900 Bldg,,33.88813,-84.46835,,,0,,0,
CCT_554,,Interstate N Cir & 294 Bldg Entr,,33.89502,-84.45901,,,0,,0,
CCT_555,,Interstate N Cir & Assurant Entr,,33.89864,-84.46379,,,0,,0,
CCT_556,,Interstate N Pkwy & 150 Bldg Entr,,33.90143,-84.46586,,,0,,0,
CCT_557,,Interstate N Pkwy & Windy Hill Rd (Athletic Club),,33.90318,-84.46568,,,0,,0,
CCT_558,,Windy Ridge Pkwy & Parkwood Cir (Wildwood Ctr),,33.90426,-84.45901,,,0,,0,
CCT_559,,Interstate N Pkwy & Marriot Entr,,33.8978,-84.46752,,,0,,0,
CCT_56,,Akers Mill Rd & Mall Entrance (Barnes & Noble),,33.87934,-84.46435,,,0,,0,
CCT_560,,Interstate N Cir & 3100 Bldg Entr (Allstate) (2),,33.89787,-84.46299,,,0,,0,
CCT_561,,Interstate N Cir & Windy Ridge Pkwy (294 Bldg),,33.89527,-84.45935,,,0,,0,
CCT_562,,Acworth Park-N-Ride,,34.07735,-84.65642,,,0,,0,
CCT_563,,Akers Mill Rd & The Columns Entrance,,33.89449,-84.45235,,,0,,0,
CCT_564,,Powers Ferry Rd & Carithers Flowers,,33.91068,-84.465,,,0,,0,
CCT_565,,Windy Hill Rd & Windy Ridge Pkwy (The Flats),,33.90633,-84.4622,,,0,,0,
CCT_566,,Fairground St & Hyde Dr (Custer Park),,33.96271,-84.53682,,,0,,0,
CCT_567,,Cobb Pkwy & Public Storage (White Water Park),,33.95616,-84.52386,,,0,,0,
CCT_568,,Franklin Rd & Twin Brooks Dr (Quick Trip),,33.93577,-84.50452,,,0,,0,
CCT_57,,Cobb Pkwy & Akers Mill Rd (Barnes & Nobles),,33.88076,-84.46375,,,0,,0,
CCT_572,,Cobb Pkwy & GA 280 Delk Rd On-Ramp (Dobbins ARB),,33.91959,-84.50266,,,0,,0,
CCT_573,,S Cobb Dr & Walthall Ave (Storage USA),,33.92269,-84.5504,,,0,,0,
CCT_574,,Floyd Rd & White Blvd (McDonalds),,33.83612,-84.57633,,,0,,0,
CCT_575,,Church St Ext & Cobb EMC Pkwy (Runaround Sues),,33.97675,-84.55461,,,0,,0,
CCT_576,,Cherokee St & Forest Ave (Mayes Funeral Home),,33.95622,-84.54902,,,0,,0,
CCT_577,,N Marietta Pkwy & Roosevelt Cir (Turner Chapel),,33.95867,-84.53868,,,0,,0,
CCT_578,,N Marietta Pkwy & Amy Dr (Power & Water),,33.9592,-84.53246,,,0,,0,
CCT_58,,Cobb Pkwy & Riverwood Pkwy (Schlotzskys Deli),,33.88025,-84.46098,,,0,,0,
CCT_581,,Cobb Pkwy & White Cir (Primary Care Partners),,33.98653,-84.56979,,,0,,0,
CCT_582,,Cobb Pkwy & Barrett Pkwy (Carmax),,33.99778,-84.58607,,,0,,0,
CCT_59,,Cobb Pkwy & Cumberland Blvd (Parkway Point),,33.87736,-84.45673,,,0,,0,
CCT_598,,Wildwood Pkwy & Georgia Pacific Entrance,,33.91405,-84.45922,,,0,,0,
CCT_599,,Windy Hill Rd & N Park Pl (Citgo),,33.90299,-84.48107,,,0,,0,
CCT_6,,Spring Rd & Cumberland Blvd (Randstad Temps),,33.88425,-84.47456,,,0,,0,
CCT_60,,Cobb Pkwy & Paces Mill Rd (BP Station),,33.87078,-84.45642,,,0,,0,
CCT_600,,County Services Pkwy & Cobb Co DOT,,33.90649,-84.58251,,,0,,0,
CCT_601,,Windy Hill Rd & N Park Pl (Windy Hill Prof Bldg),,33.90229,-84.48081,,,0,,0,
CCT_602,,Windy Hill Rd & Wildwood Pkwy (3100 Building),,33.91128,-84.4601,,,0,,0,
CCT_603,,Austell Rd & Darnell Rd (Twelve Oaks Apts),,33.9203,-84.54635,,,0,,0,
CCT_604,,Atlanta Rd & W Atlanta St (Dobbins Mill Ind Park),,33.92528,-84.54199,,,0,,0,
CCT_605,,Atlanta Rd & Perrin Rd (Associated Credit Union),,33.93119,-84.54039,,,0,,0,
CCT_606,,Atlanta St & Pearl St,,33.94621,-84.54758,,,0,,0,
CCT_607,,Busbee Pkwy & Busbee Dr (Pinnacle at Townpark),,34.03887,-84.5738,,,0,,0,
CCT_608,,Bells Ferry Rd & Bristol Ln - 608,,34.00985,-84.54769,,,0,,0,
CCT_609,,Bells Ferry Rd & Manuel Dr,,33.99044,-84.55157,,,0,,0,
CCT_61,,Windy Hill Rd & The Fountain (Towers) (1),,33.91335,-84.46035,,,0,,0,
CCT_610,,Bells Ferry Rd & Turner Rd,,33.98825,-84.55366,,,0,,0,
CCT_611,,Bells Ferry Rd & Cottage Way (Tommy Nobis Center),,33.98649,-84.55543,,,0,,0,
CCT_612,,Bells Ferry Rd & Field Pkwy (Sterling Auto Body),,33.98441,-84.55656,,,0,,0,
CCT_613,,Church St & Vann St (Wells Fargo Bank),,33.97211,-84.55099,,,0,,0,
CCT_614,,N Marietta Pkwy & Fairground St (Turner Chp),,33.9587,-84.53592,,,0,,0,
CCT_615,,Roberts Blvd & Cobb Place Blvd (Automated Logic),,34.00416,-84.58582,,,0,,0,
CCT_616,,Barrett Lakes Blvd & Cobb Place Blvd (Atlanta JCB),,34.01428,-84.5774,,,0,,0,
CCT_617,,Chastain Meadows Pkwy & Chastain Meadows Ct,,34.03067,-84.55633,,,0,,0,
CCT_618,,Austell Rd & Dorothy Dr (All Cobb Bail Bond),,33.89029,-84.58058,,,0,,0,
CCT_619,,Factory Shoals Rd & Britt (Vision for Souls),,33.79563,-84.57209,,,0,,0,
CCT_62,,Powers Ferry Rd & Frontera Restaurant,,33.90804,-84.46507,,,0,,0,
CCT_620,,S Service Rd & Six Flags Pkwy (Six Flags Park),,33.77166,-84.5526,,,0,,0,
CCT_623,,Bells Ferry Rd & Old Bells Ferry Rd (Chiropractor),,33.98454,-84.55626,,,0,,0,
CCT_624,,Bells Ferry Rd & Dickson Rd,,33.98775,-84.55391,,,0,,0,
CCT_625,,Bells Ferry Rd & Manuel Dr,,33.99048,-84.55139,,,0,,0,
CCT_626,,Bells Ferry Rd & Bells Ferry Park Entrance,,34.00671,-84.54619,,,0,,0,
CCT_627,,Busbee Pkwy & Busbee Park-N-Ride (KSU Rec Park),,34.02935,-84.5704,,,0,,0,
CCT_628,,Townpark Dr & MBNA Building (State Farm),,34.03909,-84.56592,,,0,,0,
CCT_629,,Frey Rd & Cherokee Ave (KSU C & C Bldg),,34.03753,-84.57948,,,0,,0,
CCT_63,,Windy Hill Rd & Interstate N Pkwy (Hyatt),,33.90517,-84.46615,,,0,,0,
CCT_630,,Cobb Place Blvd & Cobb Place Pkwy (Hilton Garden),,34.01136,-84.57492,,,0,,0,
CCT_631,,Barrett Pkwy & Cobb Place Blvd (Golden Corral),,34.00771,-84.57179,,,0,,0,
CCT_632,,Barrett Pkwy & Barrett Lakes Blvd (Wells Fargo),,34.00503,-84.57648,,,0,,0,
CCT_633,,Roberts Blvd & Cobb Place Blvd (Derse),,34.00444,-84.58693,,,0,,0,
CCT_634,,Vaughn Rd & Bentley Pl (Capital Trans Solutions),,34.00301,-84.59074,,,0,,0,
CCT_635,,Cobb Pkwy & Barrett Pkwy (Leather Creations),,33.99767,-84.58662,,,0,,0,
CCT_636,,Cobb Pkwy & Pete Scoggin Pkwy (Extra Space Stor),,33.98601,-84.56936,,,0,,0,
CCT_638,,N Marietta Pkwy & Amy Dr (Power & Water),,33.95909,-84.5335,,,0,,0,
CCT_639,,N Marietta Pkwy & Fairground St (Turner Chp),,33.95889,-84.53827,,,0,,0,
CCT_64,,Windy Hill Rd & S Park Pl (Wells Fargo Bank),,33.90114,-84.47732,,,0,,0,
CCT_640,,Circle 75 Pkwy & 900 Bldg Entr,,33.8879,-84.46829,,,0,,0,
CCT_641,,Circle 75 Pkwy & Windy Ridge Pkwy (Boy Scouts HQ),,33.89219,-84.46492,,,0,,0,
CCT_642,,The Exchange & 1842 Bldg Entr,,33.90719,-84.4784,,,0,,0,
CCT_643,,Water Pl & The Exchange (Greenbergfarrow Bldg),,33.90941,-84.48458,,,0,,0,
CCT_644,,Riverwood Pkwy & Cobb Pkwy (CS Bank),,33.8778,-84.46009,,,0,,0,
CCT_645,,Bentley Rd & Delk Rd (Shell Station),,33.92185,-84.47631,,,0,,0,
CCT_646,,S Park Pl & Doubletree Hotel Entr,,33.90264,-84.47767,,,0,,0,
CCT_647,,Circle 75 Pkwy & Herodian Way (Office Bldg),,33.89522,-84.46824,,,0,,0,
CCT_648,,Terrell Mill Rd & Laurel Valley (Quintiles),,33.91158,-84.48201,,,0,,0,
CCT_649,,Circle 75 Pkwy & 1000 Bldg Entr (Lake),,33.88982,-84.46636,,,0,,0,
CCT_65,,Windy Hill Rd & S Park Pl (Bank of America),,33.9014,-84.47935,,,0,,0,
CCT_650,,Busbee Pkwy & Town Center Dr,,34.02199,-84.5676,,,0,,0,
CCT_651,,Fairground St & Rigby St (Capital Auto Brokers),,33.95669,-84.53521,,,0,,0,
CCT_652,,Interstate N Pkwy & Bldg 180 Entr (The Pond),,33.90081,-84.46714,,,0,,0,
CCT_653,,Interstate N Cir & 3100 Bldg Entr (Allstate) (1),,33.89844,-84.46397,,,0,,0,
CCT_654,,County Services Pkwy & Cobb Co Trash Transfer Stn,,33.90668,-84.58224,,,0,,0,
CCT_655,,Cumberland Blvd & One Overton Park,,33.88353,-84.452,,,0,,0,
CCT_656,,Interstate N Pkwy & Global BMW,,33.89874,-84.44906,,,0,,0,
CCT_657,,Interstate N Pkwy & 450 Bldg Entr,,33.89582,-84.45241,,,0,,0,
CCT_658,,Interstate N Pkwy & Platinum Tower Entr,,33.89391,-84.45572,,,0,,0,
CCT_659,,Interstate N Cir & Interstate N Pkwy (210),,33.89775,-84.46553,,,0,,0,
CCT_66,,Windy Hill Rd & Westminster Square Entr,,33.90366,-84.48255,,,0,,0,
CCT_660,,Interstate N Pkwy & 180 Bldg Entr (1),,33.90011,-84.46833,,,0,,0,
CCT_661,,Interstate N Pkwy & 180 Bldg Entr (2),,33.90069,-84.4669,,,0,,0,
CCT_662,,Interstate N Pkwy & 150 Bldg Entr (Tennis Courts),,33.90235,-84.46547,,,0,,0,
CCT_663,,Atlanta St & E Dixie Ave,,33.94112,-84.544,,,0,,0,
CCT_664,,Atlanta St & E Dixie Ave,,33.94084,-84.54401,,,0,,0,
CCT_665,,Cherokee St & Blackwell St (Co Police Dept),,33.95766,-84.54896,,,0,,0,
CCT_666,,Bells Ferry Rd & Oak Harbor Trl (Oak Harbor S.D.),,33.99688,-84.54753,,,0,,0,
CCT_667,,Chastain Rd & Kennesaw State University Rd,,34.03261,-84.58059,,,0,,0,
CCT_668,,Busbee Dr & KSU Center,,34.03199,-84.57324,,,0,,0,
CCT_67,,Windy Hill Rd & Cobb Pkwy (The Crossing),,33.90357,-84.48566,,,0,,0,
CCT_672,,Barrett Lakes Blvd & Atlanta JCB,,34.01498,-84.57739,,,0,,0,
CCT_673,,Chastain Rd & Busbee Pkwy (Taco Mac),,34.03647,-84.56849,,,0,,0,
CCT_674,,Akers Mill Rd & Powers Ferry Rd (Food Store),,33.89844,-84.44796,,,0,,0,
CCT_68,,Windy Hill Rd & Chris Volvo,,33.90181,-84.48966,,,0,,0,
CCT_689,,Thornton Rd & Bankhead Hwy (Autosmith Car Lot),,33.79736,-84.6438,,,0,,0,
CCT_69,,Windy Hill Rd & Roswell St (Legacy Golf),,33.89638,-84.49893,,,0,,0,
CCT_690,,"Thornton Rd & Maxham Rd (561 Bldg, Applebees)",,33.78934,-84.62389,,,0,,0,
CCT_691,,Thornton Rd & Skyview Dr (McDonalds),,33.78186,-84.60879,,,0,,0,
CCT_692,,Thornton Rd & N Blairs Bridge Rd (BP Station),,33.77939,-84.60721,,,0,,0,
CCT_693,,Thornton Rd & N Blairs Bridge Rd (Waffle House),,33.77984,-84.60697,,,0,,0,
CCT_694,,Thornton Rd & Oak Ridge Rd (Thorton Chevrolet),,33.78351,-84.60993,,,0,,0,
CCT_695,,Thornton Rd & Maxham Rd (Sonic),,33.78983,-84.62389,,,0,,0,
CCT_696,,Thornton Rd & Westfork Blvd (Westfork Offc Cmplx),,33.79274,-84.63109,,,0,,0,
CCT_7,,"Cobb Pkwy & Windy Ridge Pkwy (KFC, State Farm)",,33.88917,-84.47442,,,0,,0,
CCT_70,,Windy Hill Rd & Atlanta Rd (Belmont Hills),,33.89447,-84.52158,,,0,,0,
CCT_71,,Windy Hill Rd & Belmont Cir (McDonalds),,33.89443,-84.52583,,,0,,0,
CCT_72,,Windy Hill Rd & San Fernando Dr (Dentist Office),,33.89456,-84.53264,,,0,,0,
CCT_73,,Windy Hill Rd & Old Concord Rd (Walgreens),,33.89464,-84.54056,,,0,,0,
CCT_74,,Windy Hill Rd & Timberly Dr,,33.89477,-84.54829,,,0,,0,
CCT_75,,Windy Hill Rd & Bouldercrest Dr (W Cobb Prep),,33.89483,-84.55068,,,0,,0,
CCT_76,,Windy Hill Rd & LaRose Dr (Piedmont Villa Apts),,33.8949,-84.55566,,,0,,0,
CCT_762,,Interstate N Cir & Interstate N Pkwy (210),,33.8976,-84.46518,,,0,,0,
CCT_763,,Interstate N Pkwy & Interstate N Cir (210 Bldg),,33.89697,-84.46627,,,0,,0,
CCT_764,,Interstate N Pkwy & Platinum Tower Entr,,33.89362,-84.45616,,,0,,0,
CCT_765,,Bentley Rd & Delk Rd (Concepts 21 Apt),,33.92164,-84.4764,,,0,,0,
CCT_766,,Water Pl & The Exchange (Office Bldg),,33.90922,-84.48459,,,0,,0,
CCT_768,,S Park Pl & Windy Hill Rd (Doubletree Hotel),,33.90268,-84.47793,,,0,,0,
CCT_77,,Windy Hill Rd & Kennedy Ln (Osborne High School),,33.89498,-84.56358,,,0,,0,
CCT_776,,Blair Bridge Rd & S Gordon Rd (Mt Pisgah),,33.78918,-84.58042,,,0,,0,
CCT_777,,Blair Bridge Rd & Hembree Dr,,33.78652,-84.58719,,,0,,0,
CCT_778,,Blair Bridge Rd & Blairs View Dr (Shell Station),,33.78224,-84.59388,,,0,,0,
CCT_779,,Six Flags Dr & Lake Crossing (Lake Crossing Apts),,33.77958,-84.59258,,,0,,0,
CCT_78,,Windy Hill Rd & Beverly Ln,,33.89517,-84.57201,,,0,,0,
CCT_780,,Six Flags Dr & Summer Stone Ln (Summerlin Homes),,33.77777,-84.58971,,,0,,0,
CCT_781,,Six Flags Dr & Winterglen Ln (Winterbrook Homes),,33.77765,-84.5845,,,0,,0,
CCT_782,,Six Flags Dr & Pine View Way (S Cobb Rec Ctr),,33.77847,-84.58058,,,0,,0,
CCT_783,,Six Flags Dr & Factory Shoals Rd (Dollar General),,33.77852,-84.57594,,,0,,0,
CCT_784,,Six Flags Dr & Factory Shoals Rd (Gateway Academy),,33.77866,-84.57598,,,0,,0,
CCT_785,,Six Flags Dr & Springchase St (S Cobb Rec Ctr),,33.77865,-84.57975,,,0,,0,
CCT_786,,Six Flags Dr & Winterglen Ln,,33.77787,-84.58601,,,0,,0,
CCT_787,,Six Flags Dr & Winterbrook Way,,33.77859,-84.59079,,,0,,0,
CCT_788,,Blair Bridge Rd & Six Flags Dr,,33.78224,-84.59364,,,0,,0,
CCT_789,,Blair Bridge Rd & Pleasant Dr,,33.7864,-84.58718,,,0,,0,
CCT_79,,Austell Rd & Arkose Dr (Mexican Restaurant),,33.8965,-84.57521,,,0,,0,
CCT_790,,Blair Bridge Rd & William Rd,,33.78786,-84.58345,,,0,,0,
CCT_791,,Blair Bridge Rd & S Gordon Rd (Mt Pisgah),,33.78909,-84.58032,,,0,,0,
CCT_792,,County Services Pkwy & Cobb Co Juvenile Det,,33.91652,-84.58212,,,0,,0,
CCT_793,,Cherokee St & Canton Rd (Kennestone E Office Park),,33.9686,-84.54836,,,0,,0,
CCT_794,,Busbee Pkwy & Clarinbridge Apts Entrance,,34.04408,-84.57556,,,0,,0,
CCT_795,,Chastain Rd & Busbee Pkwy (Los Reyes Restaurant),,34.03493,-84.57344,,,0,,0,
CCT_796,,N Marietta Pkwy & Cherokee St (Police Dept),,33.95904,-84.54662,,,0,,0,
CCT_797,,S Marietta Pkwy & Franklin Rd (Haveli Restaurant),,33.93959,-84.5088,,,0,,0,
CCT_798,,Thornton Rd & Bankhead Hwy (Acceptance Auto Sales),,33.79773,-84.64413,,,0,,0,
CCT_8,,Cobb Pkwy & Herodian Way (Olive Garden),,33.89198,-84.47705,,,0,,0,
CCT_80,,County Services Pkwy & Kurt Dr (Texaco Station),,33.89913,-84.57376,,,0,,0,
CCT_800,,Cumberland Blvd & Akers Mill Rd (Bank of America),,33.87784,-84.46376,,,0,,0,
CCT_805,,County Services Pkwy & Cobb Co Juvenile Det,,33.91652,-84.58248,,,0,,0,
CCT_807,,S Cobb Dr & Magnolia Dr,,33.86636,-84.52396,,,0,,0,
CCT_808,,Atlanta Rd & Generals Rd (Entrance to Dobbins ARB),,33.93025,-84.54071,,,0,,0,
CCT_809,,S Cobb Dr & McCaulley Rd,,33.86647,-84.52368,,,0,,0,
CCT_81,,County Services Pkwy & Al Bishop Dr (Co Fleet),,33.90322,-84.58165,,,0,,0,
CCT_810,,Spring Rd & Woodruff Dr (American Lung Assoc),,33.88316,-84.48254,,,0,,0,
CCT_811,,Factory Shoals Rd & S Gordon Rd (Shell),,33.78966,-84.57558,,,0,,0,
CCT_812,,Bentley Rd & St Augustine Tr (Bentley Ridge),,33.91733,-84.4754,,,0,,0,
CCT_813,,The Exchange & 1940 Bldg Entr (1900 Bldg),,33.90563,-84.47788,,,0,,0,
CCT_814,,Circle 75 Pkwy & Medtech Institute (Days Inn),,33.8985,-84.47338,,,0,,0,
CCT_815,,Circle 75 Pkwy & 1100 Bldg Entr,,33.89053,-84.46509,,,0,,0,
CCT_816,,Circle 75 Pkwy & Herodian Way (Genuine Parts-NAPA),,33.89576,-84.46895,,,0,,0,
CCT_817,,The Exchange & 1900 Bldg Entr,,33.90614,-84.47813,,,0,,0,
CCT_818,,The Exchange & 1785 Bldg Entr,,33.90905,-84.47956,,,0,,0,
CCT_819,,Bentley Rd & Terrell Place,,33.9147,-84.47254,,,0,,0,
CCT_82,,County Services Pkwy & Cobb Co Compost Facility,,33.90954,-84.58222,,,0,,0,
CCT_821,,Interstate N Pkwy & Interstate N Pkwy E (Tennis),,33.90229,-84.46571,,,0,,0,
CCT_822,,Interstate N Pkwy & Bldg 150 Entr,,33.90146,-84.46602,,,0,,0,
CCT_823,,Interstate N Pkwy & Auto Dealer Assoc Entr,,33.89419,-84.45468,,,0,,0,
CCT_824,,Interstate N Pkwy & Global BMW Entr,,33.89906,-84.44844,,,0,,0,
CCT_825,,Interstate N Cir & Windy Ridge Pkwy (280 Bldg),,33.89703,-84.46182,,,0,,0,
CCT_826,,Windy Hill Rd & The Fountain (Towers) (2),,33.91302,-84.46109,,,0,,0,
CCT_827,,Windy Hill Rd & 3100 Bldg,,33.91089,-84.46029,,,0,,0,
CCT_828,,Windy Hill Rd & Village Pkwy (Retreat at WH),,33.89948,-84.49396,,,0,,0,
CCT_829,,Windy Hill Rd & Village Pkwy (Retreat at WH),,33.89922,-84.49395,,,0,,0,
CCT_83,,County Services Pkwy & Cobb Co Health Dept,,33.91328,-84.58189,,,0,,0,
CCT_830,,Spring Rd & Sports Ave (Burger King),,33.88313,-84.47724,,,0,,0,
CCT_831,,Spring St & Sports Ave (Aldi Grocery Store),,33.88335,-84.4774,,,0,,0,
CCT_832,,Chastain Rd & I-575 (Resurgens Park),,34.03696,-84.55949,,,0,,0,
CCT_833,,Chastain Rd & I-575 (Resurgens Park),,34.03697,-84.55859,,,0,,0,
CCT_834,,Chastain Rd & Busbee Dr (Los Reyes Restaurant),,34.03437,-84.57363,,,0,,0,
CCT_838,,Chastain Meadows Pkwy & Walmart,,34.01882,-84.554,,,0,,0,
CCT_839,,Chastain Meadows Pkwy & Walmart - IB,,34.01925,-84.55352,,,0,,0,
CCT_84,,County Services Pkwy & DMV,,33.91455,-84.58203,,,0,,0,
CCT_85,,Powder Springs Rd & Cunningham Rd (CVS),,33.92159,-84.57851,,,0,,0,
CCT_850,,Northside Pkwy & Rivergreen Dr (IBM),,33.86416,-84.44734,,,0,,0,
CCT_851,,Northside Pkwy & IBM Building Entrance (IBM),,33.86432,-84.44879,,,0,,0,
CCT_852,,Northside Pkwy & Rivergreen Dr (IBM),,33.86406,-84.44914,,,0,,0,
CCT_853,,Northside Pkwy & North Pkwy Square (IBM),,33.86389,-84.44721,,,0,,0,
CCT_854,,Northside Pkwy & Mount Paran Church,,33.86353,-84.44289,,,0,,0,
CCT_855,,Hamilton E. Holmes Dr & MLK Jr Dr (Holmes Plaza),,33.75227,-84.4676,,,0,,0,
CCT_856,,MLK Jr Dr & MARTA Holmes Station,,33.75274,-84.46958,,,0,,0,
CCT_857,,Hamilton E. Holmes Dr & MLK Jr Dr (Wendys),,33.75299,-84.46732,,,0,,0,
CCT_858,,Hamilton E. Holmes Dr & I-20 (Exxon),,33.75569,-84.46845,,,0,,0,
CCT_86,,Powder Springs Rd & Bellemeade Dr (McDonalds),,33.92364,-84.57554,,,0,,0,
CCT_87,,Powder Springs Rd & Natchez Trace,,33.9251,-84.57343,,,0,,0,
CCT_88,,Powder Springs Rd & Longwood Dr (Laurel Springs),,33.9274,-84.56999,,,0,,0,
CCT_89,,Powder Springs St & Booth Rd (Lake),,33.93111,-84.56393,,,0,,0,
CCT_892,,S Marietta Pkwy & Waverly Way (Churchs Chicken),,33.94959,-84.55106,,,0,,0,
CCT_893,,S Marietta Pkwy & Roswell St (Walgreens),,33.95202,-84.55192,,,0,,0,
CCT_894,,N Marietta Pkwy & Whitlock Ave (First Methodist),,33.9529,-84.55227,,,0,,0,
CCT_895,,S Marietta Pkwy & Crescent Cir (Flagstar Bank),,33.9501,-84.55164,,,0,,0,
CCT_898,,Powder Springs St & Powder Springs Station Entr,,33.92518,-84.57377,,,0,,0,
CCT_9,,Cobb Pkwy & Spring Rd (Circle 75),,33.88673,-84.47211,,,0,,0,
CCT_90,,Powder Springs St & Springs Landing Apts,,33.933,-84.5607,,,0,,0,
CCT_901,,Powder Springs Park-N-Ride,,33.86756,-84.70151,,,0,,0,
CCT_902,,Hiram 278 Theater Park-N-Ride,,33.88523,-84.73936,,,0,,0,
CCT_903,,Town Center Park-N-Ride,,34.02765,-84.57045,,,0,,0,
CCT_904,,MARTA Civic Center Station (Southbound),,33.76593,-84.38777,,,0,,0,
CCT_906,,MARTA Five Points Station (Northbound),,33.75428,-84.39221,,,0,,0,
CCT_907,,MARTA Arts Center Station,,33.78969,-84.3872,,,0,,0,
CCT_908,,W Peachtree St & 9th St (MARTA Midtown Station),,33.78067,-84.38732,,,0,,0,
CCT_909,,W Peachtree St & North Ave (MARTA N Ave Station),,33.77168,-84.38723,,,0,,0,
CCT_91,,Powder Springs St & Chestnut Hill Rd (Wells Fargo),,33.93402,-84.55901,,,0,,0,
CCT_910,,MLK Jr Dr & Stonehurst Pl (MARTA Holmes Station),,33.75411,-84.4705,,,0,,0,
CCT_911,,MARTA Civic Center Station (Northbound),,33.76609,-84.38738,,,0,,0,
CCT_912,,Forsyth St & Alabama St (MARTA Five Points Stn),,33.75431,-84.39237,,,0,,0,
CCT_92,,Powder Springs St & Sandtown Rd (Quick Trip),,33.93567,-84.55632,,,0,,0,
CCT_93,,Powder Springs St & Garrison Rd (Joy Coin Laundry),,33.93806,-84.55381,,,0,,0,
CCT_94,,Powder Springs St & W Gramling St (Wynhaven),,33.94008,-84.55222,,,0,,0,
CCT_95,,Powder Springs St & W Dixie Ave (Conf. Center),,33.94144,-84.55192,,,0,,0,
CCT_96,,Powder Springs St & Hedges St (Conf. Center),,33.9428,-84.55166,,,0,,0,
CCT_97,,Powder Springs St & Griggs (Conf Cemetery),,33.94406,-84.55125,,,0,,0,
CCT_98,,Atlanta St & Waverly Way (Marietta Lighting),,33.95037,-84.54898,,,0,,0,
CCT_99,,Roswell St & Anderson St (Courthouse Parking),,33.95163,-84.54707,,,0,,0,
1132592,,1599 Clifton Bldg,,33.800315156778,-84.324855657204,,,0,,0,
8104,,Clifton @ Haygood,,33.795086371981,-84.321109331853,,,0,,0,
8105,,Clifton @ Gatewood (Woodruff Dorm),,33.79712395109,-84.322196127434,,,0,,0,
8106,,Clifton @ 1525 Bldg,,33.798184845382,-84.323322876959,,,0,,0,
8107,,1599 Clifton Bldg,,33.800021775108,-84.324927793705,,,0,,0,
8108,,Clifton @ CDC,,33.799544460708,-84.325291336459,,,0,,0,
8109,,Clifton @ Nursing School,,33.798194953799,-84.323606067885,,,0,,0,
8110,,Clifton @ Gatewood (Rollins Sch Public Health),,33.797147913181,-84.32246472582,,,0,,0,
8111,,Clifton @ WHSCAB,,33.794729192976,-84.321199202115,,,0,,0,
8112,,Clifton @ Woodruff Circle (EUH),,33.793336477505,-84.32111906791,,,0,,0,
8113,,Clifton @ Fishburne Dr,,33.790519699355,-84.321058780238,,,0,,0,
8114,,Clifton @ Burlington Rd,,33.790330222879,-84.317564412328,,,0,,0,
8115,,N Decatur @ Haygood Dr,,33.791882891638,-84.314742701402,,,0,,0,
8116,,N Decatur @ Clairmont (McDonald’s),,33.790232011904,-84.306673910951,,,0,,0,
8117,,N Decatur @ Scott Blvd,,33.784902380543,-84.304255565344,,,0,,0,
8118,,Clairemont @ Wilton,,33.782065927912,-84.299726977672,,,0,,0,
8119,,Clairemont @ Clairemont Oaks,,33.780031944105,-84.297246813705,,,0,,0,
8120,,Clairemont @ #2 Decatur Bldg,,33.776607331568,-84.29636358836,,,0,,0,
8121,,Emory Conference Center Hotel (ECCH),,33.80119548687,-84.324558686721,,,0,,0,
8122,,MARTA Decatur Station,,33.774499558823095,-84.29706596679247,,,0,,0,
8123,,Clairemont @ Clairemont Oaks,,33.78016204583331,-84.29696886130594,,,0,,0,
8124,,Clairemont @ Michigan Ave,,33.782030582107,-84.299115392328,,,0,,0,
8125,,Clairemont @ Scott Blvd,,33.784878701217,-84.303738845819,,,0,,0,
8126,,N Decatur @ Clairmont (FedEx),,33.790676484112,-84.307276446697,,,0,,0,
8127,,N Decatur @ Haygood Dr,,33.792093200256,-84.314687222328,,,0,,0,
8128,,N Decatur @ Burlington Rd.,,33.790660888279,-84.317424513254,,,0,,0,
8129,,Clifton @ Law School,,33.789737288141,-84.32083886627,,,0,,0,
8130,,Clifton @ Uppergate,,33.793001795483,-84.32088291418,,,0,,0,
1079687,,5th St./ Fowler NW,,33.7770166657938,-84.3940833333333,,,0,,0,
1079690,,5th St./ Fowler SW,,33.77685799912713,-84.393905,,,0,,0,
1079691,,5th St./ Techwood,,33.77698333246047,-84.39168333333333,,,0,,0,
1079692,,5th St./ Techwood,,33.77683333246047,-84.39179999999998,,,0,,0,
1079695,,8th St./ Hemphill Ave,,33.779541823318,-84.402809585344,,,0,,0,
1079696,,Cherry St./ Ferst Dr. SW,,33.772257751615,-84.395660932541,,,0,,0,
1079697,,Cherry St./ Ferst Dr. SW,,33.772284506766,-84.395381982803,,,0,,0,
1079701,,Ferst Dr./ Atlantic Dr. NE,,33.77833333246045,-84.3981,,,0,,0,
1079709,,Ferst Dr./ Hemphill Ave.,,33.778300436443,-84.401666466296,,,0,,0,
1079710,,Ferst Dr./ Hemphill Ave. SE,,33.778372081269,-84.40093333,,,0,,0,
1079714,,Ferst Dr./Cherry St. N,,33.777564629835,-84.395510321427,,,0,,0,
1079717,,Ferst Dr./Cherry St.(Klaus) S,,33.777332464717,-84.395681982804,,,0,,0,
1079718,,Ferst Dr./State St. NW,,33.778401165492,-84.399518956983,,,0,,0,
1079724,,Ferst Dr./State St. NW,,33.778184160099,-84.399394183804,,,0,,0,
1079729,,Fitten Hall,,33.778222079145,-84.404116669738,,,0,,0,
1079730,,GCATT S,,33.786255249221,-84.395548084656,,,0,,0,
1079735,,GT Coll. Of Mgt. ,,33.776772999127125,-84.38778399999997,,,0,,0,
1079737,,MARTA Midtown,,33.780842242509,-84.386347703066,,,0,,0,
1079738,,McMillian St./8th St.,,33.779544153782,-84.404061872328,,,0,,0,
1079742,,Recreation Center W,,33.77508899912715,-84.40267899999999,,,0,,0,
1079751,,Recreation Center,,33.775073833818,-84.402451146509,,,0,,0,
1079755,,Transit Hub,,33.773030108182,-84.39732609787,,,0,,0,
1079757,,Student Center,,33.773470468533,-84.39908656677,,,0,,0,
1079758,,Tech Pkwy/ State St. (St. Cntr.),,33.77322368948,-84.399536441803,,,0,,0,
1079761,,Technology Square ,,33.77698333246047,-84.38965000000002,,,0,,0,
1079762,,Technology Square ,,33.77679999912713,-84.38978333333333,,,0,,0,
1079764,,Techwood Dr./4th Street NW,,33.77506666579382,-84.39186666666667,,,0,,0,
1079765,,Techwood Dr./ 4th Street NW,,33.774966665793805,-84.39206666666666,,,0,,0,
1079767,,Techwood Dr./ 5th St. NW,,33.77668333246046,-84.39198333333333,,,0,,0,
1079768,,Techwood Dr./5th St. NW,,33.776670904544,-84.392192915344,,,0,,0,
1079772,,Techwood/ North Ave. E,,33.77189999912721,-84.39188299999999,,,0,,0,
1079774,,Techwood/ North Ave. W,,33.77147676,-84.392133003755,,,0,,0,
1079775,,Academy of Medicine ,,33.7785499991271,-84.38723333333333,,,0,,0,
1079776,,NARA ,,33.770765999127214,-84.40337799999999,,,0,,0,
1079778,,TEP,,33.768747771068,-84.402236829361,,,0,,0,
1079782,,North Avenue Apartments(NAA),,33.770058248941,-84.391577360262,,,0,,0,
1079788,,GLC S,,33.781645934956,-84.395943054918,,,0,,0,
1079793,,10th / Hemphill Av. N,,33.781652752225,-84.404147373016,,,0,,0,
1079795,,Hemphill Av. / Curran St. E,,33.78466499912703,-84.40593699999998,,,0,,0,
1079798,,575 14th Street S,,33.786377162348,-84.405358646245,,,0,,0,
1079799,,14th St. / State St. S,,33.786050498323,-84.398876525131,,,0,,0,
1079801,,Baker Bldg (GTRI) W,,33.780392587702,-84.399313101853,,,0,,0,
1079805,,Ferst Dr./ Atlantic Dr.,,33.778129826836,-84.397547703016,,,0,,0,
1107089,,Woodruff Memorial,,33.792760268029,-84.321774049311,,,0,,0,
1113892,,Clifton & Gatewood,,33.797045103781,-84.32200167577,,,0,,0,
1115168,,Publix,,33.780727723517,-84.388855310076,,,0,,0,
1116446,,Student Center,,33.773287024681,-84.399110794299,,,0,,0,
1126650,,Techwood Dr. NW/Bobby Dodd Way NW,,33.774083034385,-84.39210829321,,,0,,0,
1126651,,Techwood Dr. NW/Bobby Dodd Way NW,,33.774074118197,-84.391861528836,,,0,,0,
1126653,,Clough Turnaround,,33.775197801501,-84.396292539271,,,0,,0,
1131273,,Baker Bldg (GTRI),,33.780330596526,-84.398987622866,,,0,,0,
1133601,,Clifton Road at Gatewood Road,,33.797183312467,-84.322646175508,,,0,,0,
1133603,,MARTA Midtown,,33.781329566365,-84.386375466445,,,0,,0,
4560255,,Andrews Circle,,33.7941141418,-84.317129413001,,,0,,0,
2221057,,Sigman Rd P&R (Perimeter),,33.684581208135,-84.057385774355,,,0,,0,
6873,,Williams St @ Baker St,,33.76253645,-84.3908271448,,,0,,0,
6874,,Centennial Olympic Park Dr @ John Portman Blvd (American Cancer Soc),,33.76125825,-84.3923203697,,,0,,0,
6875,,Centennial Olympic Park Dr @ Andrew Young International Bldv,,33.7598807378,-84.39231676,,,0,,0,
6876,,Marietta St at Cone St (across from Marietta 101 Bldg),,33.7562046185,-84.3920901514,,,0,,0,
6877,,Spring St @ Pine St (Civic Center MARTA Station),,33.7676640852,-84.387575997,,,0,,0,
6878,,Baker St @ Williams St,,33.7625120483,-84.3902162347,,,0,,0,
6880,,Peachtree Center Ave between Baker & Peachtree,,33.7636258281,-84.38567119,,,0,,0,
6881,,Central Ave @ Mitchell St (City Hall),,33.7493483744,-84.3906095979,,,0,,0,
6882,,MLK Jr Dr just before Peachtree St (Fulton County Government Center),,33.7519996427,-84.3915631868,,,0,,0,
6883,,MLK Jr Dr @ Washington St (State Capitol),,33.7500927221,-84.388076885,,,0,,0,
6884,,MLK Jr Dr just before Forsyth St (Nunn Federal Bldg),,33.7528642307,-84.3930618516,,,0,,0,
6885,,Forsyth St @ Five Points MARTA Station (northbound),,33.754141439,-84.3921184873,,,0,,0,
6886,,Baker St @ Peachtree St (SunTrust Plaza),,33.7624941628,-84.3867003157,,,0,,0,
6887,,W Peachtree St @ Civic Center MARTA Station (southbound),,33.7662153757,-84.3877518148,,,0,,0,
6888,,Peachtree St @ Baker St (across from SunTrust Plaza),,33.762797764,-84.3873765303,,,0,,0,
6889,,John Portman Blvd @ Peachtree St (Peachtree Center),,33.760756241,-84.3877988816,,,0,,0,
6890,,Forsyth St @ MLK Jr Federal Center Annex,,33.7521589983,-84.3943880539,,,0,,0,
6891,,Mitchell St @ Central Ave (Fulton County Courthouse),,33.7496024713,-84.391159938,,,0,,0,
6892,,Mitchell St @ Washington St (State Capitol),,33.7489869498,-84.3900051439,,,0,,0,
6893,,Mitchell St @ Coverdell Legislative Office Bldg (State Capitol),,33.7483315781,-84.3886220303,,,0,,0,
6894,,W Peachtree St @ Ponce de Leon Ave (North Ave MARTA Station),,33.7720893954,-84.387092266,,,0,,0,
6895,,Ponce de Leon Ave @ W Peachtree St (North Ave MARTA Station),,33.7725684837,-84.3870655759,,,0,,0,
6896,,W Peachtree St @ 5th St,,33.776078439,-84.3870690781,,,0,,0,
6897,,W Peachtree St @ Peachtree Place (Midtown MARTA Station),,33.7805415755,-84.387113915,,,0,,0,
6898,,Spring St @ 17th St,,33.7903562125,-84.3895779497,,,0,,0,
6899,,W Peachtree St @ Arts Center MARTA Station,,33.7892160665,-84.3876038678,,,0,,0,
6900,,W Peachtree St after 14 St (1201 W Peachtree St),,33.7869288018,-84.387531177,,,0,,0,
6901,,Spring St @ 5th St (GA Tech Technology Square),,33.7769394074,-84.3891757456,,,0,,0,
6902,,Ivan Allen @ Alexander St (Peachtree Summit Bldg),,33.7649927231,-84.3867407493,,,0,,0,
6903,,Spring St just before Linden Ave (One Georgia Center),,33.7709066441,-84.3891384019,,,0,,0,
6904,,W Peachtree St @ Civic Center MARTA Station (northbound),,33.7661907407,-84.3872630534,,,0,,0,
6905,,Foryth St @ MLK Jr (across from Federal Center Annex),,33.7525206385,-84.3934242849,,,0,,0,
6907,,17th St @ Market St,,33.7914397684,-84.3947811753,,,0,,0,
6908,,Spring St @ John Portman Blvd (AmericasMart Bldg No 1),,33.7607544314,-84.3888067533,,,0,,0,
6909,,Spring St @ W Peachtree Place,,33.7638309312,-84.3887723089,,,0,,0,
6910,,Spring St @ Carnegie Way,,33.7589676113,-84.3894435067,,,0,,0,
6911,,Spring St @ Luckie St,,33.7580725133,-84.3906933622,,,0,,0,
6912,,Forsyth St across from Five Points MARTA Station (southbound),,33.7543957523,-84.3925467053,,,0,,0,
6913,,Cumming P&R,,34.1815785867,-84.1418105788,,,0,,0,
6914,,North Springs MARTA Station,,33.944454249,-84.357013333,,,0,,0,
6915,,JC Pkwy @ Commerce Way (S),,34.0714722577,-84.1652054853,,,0,,0,
6916,,W Johns Xing @ Emory Hospital,,34.0674360617,-84.1747588649,,,0,,0,
6917,,JC Pkwy @ Johns Creek Ct (N),,34.0682634127,-84.1618288152,,,0,,0,
6918,,JC Pkwy @ Johns Creek Ct (S),,34.0685843559,-84.1625530201,,,0,,0,
6919,,JC Pkwy @ E Johns Crossing (S),,34.0634694626,-84.1649850191,,,0,,0,
6920,,North Ave @ W Peachtree St (One Georgia Center),,33.7710284373,-84.3876937116,,,0,,0,
6921,,JC Pkwy @ E Johns Crossing (N),,34.0632276338,-84.1645642576,,,0,,0,
6922,,11445 Johns Creek Pkwy (S),,34.0610699547,-84.1656137761,,,0,,0,
6923,,Acrsfrm11315JohnsCreekPkwy (N),,34.0559827959,-84.1698420685,,,0,,0,
6924,,10900 Medlock Bridge Road (S),,34.0482026758,-84.1774810636,,,0,,0,
6925,,GA 141 @ Abbotts Br ShpCtr (N),,34.0467208528,-84.1781636433,,,0,,0,
6926,,GA 141 at Medlock Br Pkwy (S),,34.0292594688,-84.1871168031,,,0,,0,
6927,,GA 141 at Medlock Br Pkwy (N),,34.029437807,-84.1866944055,,,0,,0,
6928,,GA141@State BrCornersShpCtr(N),,34.0171448768,-84.1900270417,,,0,,0,
6929,,GA 141 @ Medlock Crossing Shopping Center (S),,34.0172920503,-84.1904481272,,,0,,0,
6930,,Forum @ 5555 Ptree Pkwy (S),,33.9810764162,-84.2156659946,,,0,,0,
6931,,GA 141 acrssfrm The Forum (N),,33.9809176237,-84.2152160993,,,0,,0,
6932,,Triangle Pkwy at Metric Dr (S),,33.9753555572,-84.2242891428,,,0,,0,
6933,,Triangle Pkwy at Metric Dr (N),,33.9753054956,-84.2239273615,,,0,,0,
6934,,5510 Spalding Dr (S),,33.9699886286,-84.2231917348,,,0,,0,
6935,,5515 Spalding Dr (N),,33.9702326425,-84.2231057715,,,0,,0,
6936,,HCA @ 5707 Peachtree Parkway (S),,33.9641970816,-84.224772497,,,0,,0,
6937,,5664 Peachtree Parkway (N),,33.9637523004,-84.2245310622,,,0,,0,
6938,,6155 Peachtree Parkway (S),,33.9513077329,-84.2348301791,,,0,,0,
6939,,Publixacrsfrm6135PeachPkwy(N),,33.9517628625,-84.2342279502,,,0,,0,
6942,,Doraville MARTA Station,,33.9024615168,-84.2805859935,,,0,,0,
6946,,"West Conyers P&R (Sigman Rd, Midtown)",,33.6851327729,-84.0566842711,,,0,,0,
6947,,"West Conyers P&R (Sigman Rd, Downtown)",,33.685070664,-84.0585311592,,,0,,0,
6948,,Panola Rd P&R,,33.7022873949,-84.1732485928,,,0,,0,
6949,,McDonough P&R,,33.4172542814,-84.1802527193,,,0,,0,
6950,,Stockbridge Rd P&R,,33.5481697878,-84.278990364,,,0,,0,
6951,,Hampton (Boothe's Crossing),,33.381880705205,-84.299375348268,,,0,,0,
6952,,Riverdale P&R,,33.5672594227,-84.4033140997,,,0,,0,
6953,,Union City P&R,,33.5873992451,-84.5118283363,,,0,,0,
6954,,Newnan P&R,,33.4045470539,-84.7229823171,,,0,,0,
6955,,Arbor Place Mall,,33.7299686644,-84.7457750635,,,0,,0,
6956,,Douglas Multi Modal Ctr P&R,,33.7432843382,-84.7262255292,,,0,,0,
6962,,Canton/Boling Park P&R,,34.2301431788,-84.5006213048,,,0,,0,
6969,,Jonesboro P&R,,33.5243840536,-84.3620616545,,,0,,0,
6970,,Dunwoody MARTA,,33.9212473902,-84.3443258052,,,0,,0,
6971,,Medical Center MARTA,,33.9105286552,-84.3514402345,,,0,,0,
6972,,East Conyers P&R (Springfield Church),,33.64102291216229,-83.98775589966789,,,0,,0,
6974,,JC Pkwy @ Commerce Way (N),,34.0717540811,-84.1651070501,,,0,,0,
6975,,BrandsMart P&R,,33.5480375764,-84.2844694366,,,0,,0,
6976,,Woodstoch P&R (His Hands Church),,34.0815631321,-84.5417543266,,,0,,0,
6977,,Southern Regional Hospital (S),,33.5780604356,-84.3889431913,,,0,,0,
6986,,East Conyers Drivers Services,,33.6669678955,-83.9770497076,,,0,,0,
6987,,Stone Mountain P&R,,33.8224612635,-84.1098687216,,,0,,0,
6988,,Mall of Georgia,,34.067494578,-83.9828107461,,,0,,0,
6990,,West Douglas P&R,,33.7226394338,-84.7740422485,,,0,,0,
6991,,Hamilton Mill P&R,,34.0757676013,-83.9214830868,,,0,,0,
6992,,111 Perimeter Ctr West (N),,33.9268016406,-84.338524321,,,0,,0,
6993,,4355 Ash Dun-N Ravina Dr (E),,33.9215597485,-84.3385989947,,,0,,0,
6994,,4355 Ash Dun-N Ravina Dr (W),,33.922576352,-84.3389301834,,,0,,0,
6995,,111 Perimeter Ctr West (S),,33.926296534,-84.3387145523,,,0,,0,
6996,,201 PerCtrPkwy-Firestone (W),,33.9264211909,-84.3444840482,,,0,,0,
6997,,201 PerCtrPkwy-Firestone (E),,33.9261295591,-84.3440372042,,,0,,0,
6998,,PtreeDunwoody-Concourse (W),,33.9167656798,-84.3515392817,,,0,,0,
6999,,PtreeDunwoody-Concourse (E),,33.9160064547,-84.3509277384,,,0,,0,
7000,,Central Ave @ Wall St (Underground Atlanta),,33.7523627401,-84.3882659519,,,0,,0,
7001,,Peachtree Center Ave @ Auburn Ave (Loudermilk Center),,33.755377224,-84.3858305232,,,0,,0,
7002,,Peachtree Center Ave @ John Wesley Dobbs Ave (Ga-Pacific Bldg),,33.7569332491,-84.3858650231,,,0,,0,
7003,,Peachtree Center Ave @ Andrew Young International Blvd,,33.7594843065,-84.3858104337,,,0,,0,
7004,,John Portman Blvd just past Peachtree Center Ave,,33.7607390301,-84.3854267115,,,0,,0,
7005,,Courtland @ Ellis St (across from Sheraton Hotel),,33.7586193084,-84.3844949716,,,0,,0,
7006,,Courtland @ Auburn Ave (Loudermilk Center),,33.7562494603,-84.3845470085,,,0,,0,
7007,,Courtland @ Gilmer St (Georgia State University),,33.7538219025,-84.3853990163,,,0,,0,
7008,,Washington St @ MLK Jr Dr (State Capitol),,33.7503980139,-84.3885357401,,,0,,0,
7009,,Marietta St @ Spring St (101 Marietta Bldg),,33.7569217501,-84.3922479265,,,0,,0,
7010,,17th St just before Spring St,,33.7920299967,-84.3889334623,,,0,,0,
7160,,Dacula (Hebron Church),,33.9983040578,-83.9073682286,,,0,,0,
MARTA_1000002,902990,VIRGINIA AVE NE @ TODD RD NE,,33.782325,-84.355076,,,0,,0,
MARTA_1000004,153078,COLUMBIA DR@FLATSHOALS PKWY,,33.692977,-84.260611,,,0,,0,
MARTA_1000005,902941,GLENDALE RD @ HATTON DR,,33.787337,-84.254073,,,0,,0,
MARTA_1000008,133032,COVINGTON HWY@HILLVALE RD,,33.71842,-84.150209,,,0,,0,
MARTA_1000009,133048,COVINGTON HWY@HILLVALE RD,,33.718491,-84.150188,,,0,,0,
MARTA_1000021,902946,CHAPEL ST @ 7TH STREET,,33.786604,-84.256086,,,0,,0,
MARTA_1000022,183036,BUFFINGTON RD@FLAT SHOALS RD,,33.584084,-84.510264,,,0,,0,
MARTA_1000023,902947,WESTCHESTER BLVD @ ILLINOIS AVE,,33.765001,-84.452251,,,0,,0,
MARTA_1000025,133078,PANOLA RD@2538,,33.715219,-84.165527,,,0,,0,
MARTA_1000027,102258,ALABAMA ST @ BROAD ST,,33.753505,-84.391973,,,0,,0,
MARTA_1000028,903031,N PEACHTREE RD@PEELER RD SOUTH,,33.935912,-84.294103,,,0,,0,
MARTA_1000029,903032,CHAMBLEE TUCKER RD@STONECREST CT,,33.885588,-84.250401,,,0,,0,
MARTA_1000031,902986,EXECUTIVE PARK DR@EXECUTIVE PARK E,,33.829998,-84.33431,,,0,,0,
MARTA_100004,100004,JOSEPH E LOWERY BLVD@BECKWITH ST SW,,33.752636,-84.417759,,,0,,0,
MARTA_100006,100006,JOSEPH E LOWERY BLVD@PARSONS ST SW,,33.751251,-84.417762,,,0,,0,
MARTA_100008,100008,JOSEPH E LOWERY BLVD@ASHBY GRV SW,,33.750144,-84.417732,,,0,,0,
MARTA_100010,100010,JOSEPH E LOWERY BLVD@FAIR ST SW,,33.749364,-84.417742,,,0,,0,
MARTA_100012,100012,JOSEPH E LOWERY BLVD@WESTVIEW DR SW,,33.746685,-84.417803,,,0,,0,
MARTA_100014,100014,JOSEPH E LOWERY BLVD@SELLS AVE SW,,33.745587,-84.417784,,,0,,0,
MARTA_100016,100016,W END AVE SW @ ASHBY ST SW,,33.744255,-84.416588,,,0,,0,
MARTA_100017,100017,W END AVE SW @ WELLBORN ST SW,,33.744304,-84.415499,,,0,,0,
MARTA_100022,100022,W END AVE SW @ ASHBY ST SW,,33.744724,-84.417207,,,0,,0,
MARTA_100024,100024,JOSEPH E LOWERY BLVD@FAIR ST SW,,33.749024,-84.417337,,,0,,0,
MARTA_100026,100026,JOSEPH E LOWERY BLVD@PARSONS ST SW,,33.75063,-84.417277,,,0,,0,
MARTA_100028,100028,JOSEPH E LOWERY BLVD@BECKWITH ST SW,,33.752027,-84.417322,,,0,,0,
MARTA_100030,100030,FAIR ST SW@EUHRLEE ST SW,,33.749485,-84.415922,,,0,,0,
MARTA_100032,100032,FAIR ST SW@OGDEN ST SW,,33.749476,-84.416734,,,0,,0,
MARTA_100035,100035,FAIR ST SW@ASHBY ST SW,,33.748924,-84.417769,,,0,,0,
MARTA_100036,100036,FAIR ST SW@ABBOTT ST SW,,33.748959,-84.419167,,,0,,0,
MARTA_100038,100038,FAIR ST SW@AGNES JONES PL SW,,33.748981,-84.420273,,,0,,0,
MARTA_10004,900012,WINDWARD PKY W@DEERFIELD PKWY,,34.087866,-84.269172,,,0,,0,
MARTA_100040,100040,FAIR ST SW@JOSE ST SW,,33.74892,-84.421694,,,0,,0,
MARTA_100042,100042,FAIR ST SW@LAWTON ST SW,,33.749344,-84.423011,,,0,,0,
MARTA_100043,100043,FAIR ST SW@SAINT JOSE ST SW,,33.749272,-84.421726,,,0,,0,
MARTA_100044,100044,FAIR ST SW@EUHRLEE ST SW,,33.749027,-84.416145,,,0,,0,
MARTA_100045,100045,FAIR ST SW@AGNES JONES PL SW,,33.749162,-84.420461,,,0,,0,
MARTA_100046,100046,JOSEPH E LOWERY BLVD@MITCHELL ST SW,,33.753431,-84.417326,,,0,,0,
MARTA_100048,100048,J E LOWERY @ MARTIN L KING JR DR,,33.754524,-84.417346,,,0,,0,
MARTA_100050,100050,MARTIN LUTHER KING J@CHICAMAUGA AVE,,33.753472,-84.432261,,,0,,0,
MARTA_100052,100052,MARTIN LUTHER KING J DR SW@CERRO ST,,33.753285,-84.42994,,,0,,0,
MARTA_100054,100054,MARTIN LUTHER KING J DR SW@BURBANK,,33.753227,-84.428271,,,0,,0,
MARTA_100058,100058,HOLDERNESS ST SW@FAIR ST SW,,33.748933,-84.426351,,,0,,0,
MARTA_10006,900013,WINDWARD PKY W@5532,,34.08755,-84.26518,,,0,,0,
MARTA_100060,100060,FAIR ST SW@HOLDERNESS ST SW,,33.749299,-84.4263,,,0,,0,
MARTA_100061,100061,HOLDERNESS ST SW@WESTVIEW DR SW,,33.747532,-84.426611,,,0,,0,
MARTA_100062,100062,HOLDERNESS ST SW@WESTVIEW DR SW,,33.747425,-84.426987,,,0,,0,
MARTA_100063,100063,WESTVIEW DR SW@LANGHORN ST SW,,33.747154,-84.427994,,,0,,0,
MARTA_100064,100064,WESTVIEW DR SW@LANGHORN ST SW,,33.747539,-84.427968,,,0,,0,
MARTA_100065,100065,WESTVIEW DR SW@ATWOOD ST SW,,33.747612,-84.428839,,,0,,0,
MARTA_100066,100066,WESTVIEW DR SW@ATWOOD ST SW,,33.747192,-84.429146,,,0,,0,
MARTA_100067,100067,WESTVIEW DR SW@HOPKINS ST SW,,33.747636,-84.430851,,,0,,0,
MARTA_100068,100068,WESTVIEW DR SW@HOPKINS ST SW,,33.747242,-84.431259,,,0,,0,
MARTA_100069,100069,WESTVIEW DR SW@CHICAMAUGA AVE SW,,33.747691,-84.431993,,,0,,0,
MARTA_100070,100070,WESTVIEW DR SW@CHICAMAUGA AVE SW,,33.74728,-84.432335,,,0,,0,
MARTA_100071,100071,WESTVIEW DR SW@1403,,33.747707,-84.433192,,,0,,0,
MARTA_100072,100072,WESTVIEW DR@1403,,33.747334,-84.433228,,,0,,0,
MARTA_100074,100074,LUCILE AVE SW@ASHBY ST SW,,33.742268,-84.418137,,,0,,0,
MARTA_100076,100076,LUCILE AVE SW@PEEPLES ST SW,,33.742294,-84.420334,,,0,,0,
MARTA_100078,100078,LUCILE AVE SW@LAWTON ST SW,,33.742287,-84.422523,,,0,,0,
MARTA_10008,900014,WINDWARD PKY@NORTH POINT PKY,,34.08886,-84.2579,,,0,,0,
MARTA_100080,100080,LUCILE AVE SW@LAWTON ST SW,,33.742287,-84.423462,,,0,,0,
MARTA_100082,100082,LUCILE AVE SW@DARGAN PL SW,,33.742378,-84.425133,,,0,,0,
MARTA_100084,100084,LUCILE AVE SW@HOPKINS ST SW,,33.74237,-84.43048,,,0,,0,
MARTA_100086,100086,LUCILE AVE SW@LANGHORN ST SW,,33.742336,-84.432297,,,0,,0,
MARTA_100088,100088,LUCILE AVE SW@HOPKINS ST SW,,33.742174,-84.430404,,,0,,0,
MARTA_100090,100090,LUCILE AVE SW@ATWOOD ST SW,,33.742107,-84.429085,,,0,,0,
MARTA_100092,100092,LUCILE AVE SW@HOLDERNESS ST SW,,33.742058,-84.427368,,,0,,0,
MARTA_100094,100094,LUCILE AVE SW@DARGAN PL SW,,33.742073,-84.424644,,,0,,0,
MARTA_100096,100096,LUCILE AVE SW@LAWTON ST SW,,33.742065,-84.423462,,,0,,0,
MARTA_100098,100098,LUCILE AVE SW@LAWTON ST SW,,33.742169,-84.422714,,,0,,0,
MARTA_10010,902838,WINDWARD PKY@NORTH POINT PKY,,34.088403,-84.257398,,,0,,0,
MARTA_100100,100100,LUCILE AVE SW@PEEPLES ST SW,,33.741464,-84.420484,,,0,,0,
MARTA_100102,100102,LUCILE AVE SW@ATWOOD ST SW,,33.742378,-84.428787,,,0,,0,
MARTA_100114,100114,JOSEPH E LOWERY BLVD@SELLS AVE SW,,33.745314,-84.41729,,,0,,0,
MARTA_100115,100115,JOSEPH E LOWERY BLVD@WESTVIEW DR SW,,33.74634,-84.417334,,,0,,0,
MARTA_100118,100118,JOSEPH E LOWERY BLVD@LUCILE AVE SW,,33.742115,-84.417511,,,0,,0,
MARTA_100124,100124,MARTIN LUTHER KING J DR SW@CERRO ST,,33.753645,-84.42959,,,0,,0,
MARTA_100126,100126,MARTIN LUTHER KING J DR SW@BURBANK,,33.753596,-84.427961,,,0,,0,
MARTA_100128,100128,MARTIN LUTHER KING J@STAFFORD ST,,33.75316,-84.4267,,,0,,0,
MARTA_100130,100130,MARTIN LUTHER KING J@STAFFORD ST,,33.753626,-84.426592,,,0,,0,
MARTA_100132,100132,MARTIN LUTHER KING J@MORRIS BROW,,33.753383,-84.425482,,,0,,0,
MARTA_100134,100134,MARTIN LUTHER KING J@MORRIS BROW,,33.753804,-84.425511,,,0,,0,
MARTA_100136,100136,MARTIN LUTHER KING J@HUNTER PL N,,33.754194,-84.423901,,,0,,0,
MARTA_100137,100137,MARTIN LUTHER KING J DR@WHITEHOUSE,,33.754709,-84.41994,,,0,,0,
MARTA_100138,100138,MARTIN LUTHER KING J@HUNTER PL,,33.754431,-84.423892,,,0,,0,
MARTA_100142,100142,MARTIN LUTHER KING J@BOOKER ST,,33.754742,-84.420372,,,0,,0,
MARTA_100148,100148,MARTIN LUTHER KING J@CHICAMAUGA AVE,,33.753823,-84.431838,,,0,,0,
MARTA_100150,100150,MARTIN LUTHER KING JR DR @ CHAPPELL RD,,33.753841,-84.433273,,,0,,0,
MARTA_100152,100152,FAIR ST@FIRST ST,,33.748905,-84.425545,,,0,,0,
MARTA_100154,100154,FAIR ST@FIRST ST,,33.74933,-84.425226,,,0,,0,
MARTA_100156,100156,FAIR ST@ROSSER ST,,33.748913,-84.4245,,,0,,0,
MARTA_100158,100158,FAIR ST@ROSSER ST,,33.749313,-84.424186,,,0,,0,
MARTA_100160,100160,FAIR ST@LAWTON ST,,33.748913,-84.423424,,,0,,0,
MARTA_100162,100162,FAIR ST@ABBOTT ST,,33.749191,-84.419426,,,0,,0,
MARTA_100164,100164,MARTIN LUTHER KING J DR@OLLIE ST,,33.754608,-84.42143,,,0,,0,
MARTA_100166,100166,LUCILE AVE@HOLDERNESS ST,,33.742493,-84.426554,,,0,,0,
MARTA_100168,100168,FAIR ST@ASHBY ST,,33.749293,-84.418661,,,0,,0,
MARTA_100170,100170,WESTVIEW DR@WESTVIEW PL,,33.747696,-84.43442,,,0,,0,
MARTA_10040,902839,MARTIN LUTHER KING J DR SW@OLLIE ST,,33.754809,-84.421186,,,0,,0,
MARTA_10044,902840,NORTH POINT PKY@900,,34.08083,-84.25948,,,0,,0,
MARTA_10046,902796,NORTH POINT PKY@960,,34.078413,-84.260238,,,0,,0,
MARTA_10048,902797,NORTH POINT PKY@300,,34.08645,-84.25687,,,0,,0,
MARTA_10054,902798,NORTH POINT PKY @ 960,,34.078179,-84.260646,,,0,,0,
MARTA_10056,902799,NORTH POINT PKY @ WEBB BRIDGE RD,,34.076578,-84.260487,,,0,,0,
MARTA_101002,101002,W END AV SW @ LEE ST SW,,33.744114,-84.414177,,,0,,0,
MARTA_101004,101004,LEE ST SW@NORCROSS ST SW,,33.743196,-84.414327,,,0,,0,
MARTA_101006,101006,LEE ST SW@NORCROSS ST SW,,33.743338,-84.413776,,,0,,0,
MARTA_101008,101008,W END AVE SW @ WELLBORN ST SW,,33.744457,-84.415237,,,0,,0,
MARTA_101010,101010,PETERS ST SW@HAYNES ST SW,,33.749214,-84.399712,,,0,,0,
MARTA_101014,101014,FAIR ST SW@NORTHSIDE DR SW,,33.749042,-84.40406,,,0,,0,
MARTA_101016,101016,FAIR ST SW@WALNUT ST SW,,33.749467,-84.40647,,,0,,0,
MARTA_101018,101018,FAIR ST SW@VINE ST SW,,33.749523,-84.407741,,,0,,0,
MARTA_101020,101020,FAIR ST SW@ELM ST SW,,33.749509,-84.40958,,,0,,0,
MARTA_101022,101022,FAIR ST SW@LAWSHE ST SW,,33.749532,-84.410933,,,0,,0,
MARTA_101024,101024,FAIR ST SW @ JAMES P BRAWLEY DR SW,,33.749556,-84.412599,,,0,,0,
MARTA_101026,101026,FAIR ST SW@MILTON ST SW,,33.749457,-84.414271,,,0,,0,
MARTA_101030,101030,PETERS ST SW@FAIR ST SW,,33.748085,-84.401161,,,0,,0,
MARTA_101031,101031,FAIR ST SW@PETERS ST SW,,33.74805,-84.40144,,,0,,0,
MARTA_101032,101032,FAIR ST SW@WALKER ST SW,,33.748478,-84.402795,,,0,,0,
MARTA_101036,101036,FAIR ST SW@WALNUT ST SW,,33.74902,-84.406578,,,0,,0,
MARTA_101038,101038,FAIR ST SW@VINE ST SW,,33.749146,-84.407845,,,0,,0,
MARTA_101040,101040,FAIR ST SW@ELM ST SW,,33.749191,-84.409325,,,0,,0,
MARTA_101042,101042,FAIR ST SW@JOHN HOPE DR SW,,33.749192,-84.410651,,,0,,0,
MARTA_101044,101044,FAIR ST SW @ JAMES P BRAWLEY DR SW,,33.749168,-84.413086,,,0,,0,
MARTA_101046,101046,FAIR ST SW@MILTON ST SW,,33.749146,-84.414597,,,0,,0,
MARTA_101069,101069,MARTIN LUTHER KING J DR@ASHBY ST,,33.754678,-84.417739,,,0,,0,
MARTA_101080,101080,MARTIN LUTHER KING J DR SW@MAPLE ST,,33.754607,-84.40552,,,0,,0,
MARTA_101092,101092,WHITEHALL ST SW@SPRING ST SW,,33.746006,-84.399132,,,0,,0,
MARTA_101096,101096,WHITEHALL ST SW@SPRING ST SW,,33.7458,-84.398857,,,0,,0,
MARTA_101098,101098,WHITEHALL ST SW@385,,33.7453,-84.400551,,,0,,0,
MARTA_101100,101100,WHITEHALL ST SW@400,,33.745075,-84.400414,,,0,,0,
MARTA_101104,101104,WHITEHALL ST SW@WHITEHALL TERR SW,,33.744049,-84.403198,,,0,,0,
MARTA_101108,101108,MCDANIEL ST SW@FULTON ST SW,,33.741486,-84.402941,,,0,,0,
MARTA_101110,101110,WHITEHALL ST SW@WHITEHALL TER SW,,33.743721,-84.403076,,,0,,0,
MARTA_101126,101126,PETERS ST SW@HAYNES ST SW,,33.748894,-84.399712,,,0,,0,
MARTA_101130,101130,MARTIN LUTHER KING J DR SW@TATNAL S,,33.75445,-84.407853,,,0,,0,
MARTA_101133,101133,MARTIN LUTHER KING J DR@MAYSON TUR,,33.754832,-84.414903,,,0,,0,
MARTA_101134,101134,MARTIN LUTHER KING J DR SW@GRIFFIN,,33.754873,-84.411541,,,0,,0,
MARTA_101135,101135,NORTHSIDE DR @ LARKIN ST,,33.748229,-84.405206,,,0,,0,
MARTA_101139,101139,MARTIN LUTHER J DR@PASCHAL BLVD SW,,33.754609,-84.414402,,,0,,0,
MARTA_101144,101144,MARTIN LUTHER KING J DR SW@SUNSET A,,33.754506,-84.410251,,,0,,0,
MARTA_101146,101146,MARTIN LUTHER KING J DR SW@TATNAL S,,33.754919,-84.407671,,,0,,0,
MARTA_101148,101148,MARTIN LUTHER KING J DR SW@MAPLE ST,,33.754707,-84.405495,,,0,,0,
MARTA_101149,101149,MARTIN LUTHER KING J DR@NORTHSIDE,,33.754653,-84.403269,,,0,,0,
MARTA_101150,101150,MARTIN LUTHER KING J DR SW@NORTHSID,,33.754375,-84.403044,,,0,,0,
MARTA_101156,101156,NORTHSIDE DR SW @ MITCHELL ST SW,,33.753946,-84.403147,,,0,,0,
MARTA_101157,101157,NORTHSIDE DR @ MARKHAM ST,,33.75295,-84.403002,,,0,,0,
MARTA_101160,101160,NORTHSIDE DR SW @ MARKHAM ST SW,,33.752609,-84.402756,,,0,,0,
MARTA_101162,101162,NORTHSIDE DR SW @ CHAPEL ST SW,,33.750732,-84.403557,,,0,,0,
MARTA_101164,101164,NORTHSIDE DR SW @ NELSON ST SW,,33.750285,-84.403613,,,0,,0,
MARTA_101166,101166,NORTHSIDE DR SW @ NELSON ST SW,,33.750033,-84.403535,,,0,,0,
MARTA_101168,101168,MARTIN LUTHER KING J@JAMES P BRA,,33.754514,-84.413006,,,0,,0,
MARTA_10134,902902,FAIR ST SW@NORTHSIDE DR SW,,33.748929,-84.404936,,,0,,0,
MARTA_10136,902975,WINDWARD PKY@DEERFIELD PKY,,34.088128,-84.270103,,,0,,0,
MARTA_10142,906745,DEERFIELD PKY@MORRIS RD,,34.090648,-84.270141,,,0,,0,
MARTA_101446,101446,MARTIN LUTHER KING J DR@GRIFFIN ST,,33.754536,-84.411523,,,0,,0,
MARTA_101448,101448,MARTIN LUTHER KING J DR@SUNSET AVE,,33.754929,-84.409847,,,0,,0,
MARTA_10146,902976,WINDWARD PKY@5230,,34.092278,-84.276484,,,0,,0,
MARTA_101460,101460,MCDANIEL ST@WHITEHALL ST,,33.743446,-84.403794,,,0,,0,
MARTA_101462,101462,MARTIN LUTHER KING J DR@WALNUT ST,,33.754869,-84.406429,,,0,,0,
MARTA_101464,101464,MARTIN LUTHER KING J@JAMES P BRAWLE,,33.754864,-84.412586,,,0,,0,
MARTA_101466,101466,MARTIN LUTHER KING J DR@ASHBY ST,,33.754912,-84.417327,,,0,,0,
MARTA_101468,101468,W END AVE @ LEE ST,,33.744607,-84.414342,,,0,,0,
MARTA_10148,902977,MAIN ST@WINDWARD PKY W,,34.093848,-84.27914,,,0,,0,
MARTA_10150,902978,MAIN ST@COGBURN RD,,34.092288,-84.285274,,,0,,0,
MARTA_10168,902903,MAIN ST@684,,34.091726,-84.290431,,,0,,0,
MARTA_10170,902904,MAIN ST@684,,34.091495,-84.290512,,,0,,0,
MARTA_10172,902905,DEERFIELD PKY@MORRIS RD,,34.090281,-84.269372,,,0,,0,
MARTA_10174,902979,DEERFIELD PKY@WEBB RD,,34.092845,-84.270686,,,0,,0,
MARTA_10176,902980,DEERFIELD PKY@WEBB RD,,34.09517,-84.268409,,,0,,0,
MARTA_10186,902981,MAIN ST@WINDWARD PKY W,,34.093963,-84.279531,,,0,,0,
MARTA_102004,102004,MARTIN L KING JR DR @ FORSYTH ST,,33.75269,-84.393179,,,0,,0,
MARTA_102005,102005,MEMORIAL DR SE@FRASER ST SE,,33.746709,-84.385775,,,0,,0,
MARTA_102006,102006,MEMORIAL DR SE@MARTIN ST SE,,33.746693,-84.38401,,,0,,0,
MARTA_102007,102007,MEMORIAL DR SE@CONNALLY ST SE,,33.746648,-84.381672,,,0,,0,
MARTA_102008,102008,MEMORIAL DR SE@KELLY ST SE,,33.746753,-84.380595,,,0,,0,
MARTA_102009,102009,MEMORIAL DR SE@HILL ST SE,,33.746659,-84.37966,,,0,,0,
MARTA_102011,102011,HILL ST SE@WOODWARD AVE SE,,33.745732,-84.379412,,,0,,0,
MARTA_102012,102012,HILL ST@LOGAN ST,,33.744796,-84.379465,,,0,,0,
MARTA_102022,102022,PEACHTREE ST SW @ MITCHELL ST SW,,33.750864,-84.393047,,,0,,0,
MARTA_102026,102026,PRYOR ST SW@MEMORIAL DR SW,,33.746922,-84.394638,,,0,,0,
MARTA_102028,102028,PRYOR ST@GARNETT ST,,33.748089,-84.393686,,,0,,0,
MARTA_102030,102030,PRYOR ST SW@TRINITY AVE SW,,33.74945,-84.392775,,,0,,0,
MARTA_102032,102032,PRYOR ST SW@MARTIN LUTHER KING J DR,,33.751593,-84.391066,,,0,,0,
MARTA_102042,102042,DECATUR ST SE@PEACHTREE CENTER AVE,,33.752979,-84.38752,,,0,,0,
MARTA_102044,102044,DECATUR ST SE@COLLINS ST SE,,33.752182,-84.386406,,,0,,0,
MARTA_102046,102046,GEORGIA STATE STATION - PIEDMONT AVE,,33.75143,-84.384945,,,0,,0,
MARTA_102051,102051,JESSE HILL JR DR SE @ DECATUR ST,,33.750645,-84.38423,,,0,,0,
MARTA_102052,102052,PRYOR ST SW@ALICE ST SW,,33.743662,-84.394778,,,0,,0,
MARTA_102053,102053,PRYOR ST SW@FULTON ST SW,,33.742136,-84.394764,,,0,,0,
MARTA_102054,102054,CENTRAL AVE SW@ALICE ST SW,,33.742382,-84.393394,,,0,,0,
MARTA_102056,102056,CENTRAL AVE SW@PULLIAM ST SW,,33.747414,-84.392334,,,0,,0,
MARTA_102058,102058,CENTRAL AVE SW@TRINITY AVE SW,,33.748339,-84.391504,,,0,,0,
MARTA_102060,102060,CENTRAL AVE SW@MITCHELL ST SW,,33.749382,-84.390724,,,0,,0,
MARTA_102062,102062,MARTIN LUTHER KING J DR SW@PRYOR ST,,33.75141,-84.39075,,,0,,0,
MARTA_102070,102070,BROAD ST SW @ MARTIN L KING J DR,,33.751733,-84.39313,,,0,,0,
MARTA_102074,102074,FORSYTH ST SW@TRINITY AVE SW,,33.7508,-84.39535,,,0,,0,
MARTA_102078,102078,PETERS ST SW@SPRING ST SW,,33.750224,-84.397634,,,0,,0,
MARTA_102108,102108,FORSYTH ST SW@GARNETT ST SW,,33.749685,-84.396171,,,0,,0,
MARTA_102109,102109,FORSYTH ST SW@BROTHERTON ST SW,,33.748461,-84.396963,,,0,,0,
MARTA_102110,102110,WINDSOR ST SW@EUGENIA ST SW,,33.743068,-84.398382,,,0,,0,
MARTA_102112,102112,WINDSOR ST SW@FULTON ST SW,,33.74199,-84.39838,,,0,,0,
MARTA_10212,903045,MAIN ST@COGBURN RD,,34.092039,-84.285415,,,0,,0,
MARTA_102132,102132,CAPITOL AVE SW@MEMORIAL DR,,33.74725,-84.38795,,,0,,0,
MARTA_10214,903046,MAIN ST@CANTON ST,,34.088795,-84.29524,,,0,,0,
MARTA_102148,102148,MITCHELL ST SW@PRYOR ST SW,,33.75014,-84.39215,,,0,,0,
MARTA_102150,102150,CAPITOL SQ SW@CAPITOL PL SW,,33.748131,-84.388268,,,0,,0,
MARTA_102152,102152,MARTIN LUTHER KING J DR@COURTLAND,,33.749935,-84.388397,,,0,,0,
MARTA_102156,102156,MARTIN LUTHER KING J DR@PEACHTREE,,33.751939,-84.39183,,,0,,0,
MARTA_10216,903047,MAIN ST@CANTON ST,,34.08842,-84.29487,,,0,,0,
MARTA_102170,102170,DECATUR ST SE@PIEDMONT AVE SE,,33.75154,-84.385666,,,0,,0,
MARTA_102172,102172,DECATUR ST SE@BELL ST SE,,33.749797,-84.380316,,,0,,0,
MARTA_102173,102173,DECATUR ST SE@JESSE HILL JR DR SE,,33.7506,-84.384285,,,0,,0,
MARTA_102174,102174,DECATUR ST SE@PRATT ST SE,,33.749844,-84.38282,,,0,,0,
MARTA_102210,102210,TRINITY AVE SW@FORSYTH ST SW,,33.75044,-84.396073,,,0,,0,
MARTA_102214,102214,FORSYTH ST SW@TRINITY AVE SW,,33.750278,-84.395294,,,0,,0,
MARTA_102218,102218,FORSYTH ST SW@BROTHERTON ST SW,,33.748744,-84.396388,,,0,,0,
MARTA_102222,102222,WINDSOR ST SW@EUGENIA ST SW,,33.743098,-84.398064,,,0,,0,
MARTA_102224,102224,WINDSOR ST SW@FULTON ST SW,,33.74169,-84.39812,,,0,,0,
MARTA_102226,102226,MARIETTA ST NW @ BROAD ST NW,,33.754992,-84.390659,,,0,,0,
MARTA_102228,102228,DECATUR ST @ KIMBALL WAY,,33.753597,-84.388581,,,0,,0,
MARTA_102236,102236,BROAD ST@ALABAMA ST,,33.753359,-84.391991,,,0,,0,
MARTA_102248,102248,ALABAMA ST @ PEACHTREE ST,,33.753309,-84.391668,,,0,,0,
MARTA_102252,102252,HANK AARON DR SE @ FULTON ST SE,,33.7416,-84.387733,,,0,,0,
MARTA_102253,102253,CAPITOL AVE @ MEMORIAL DR,,33.746314,-84.387667,,,0,,0,
MARTA_102262,102262,MITCHELL ST SW@CENTRAL AVE SW,,33.74954,-84.39095,,,0,,0,
MARTA_102270,102270,BROAD ST @ ALABAMA ST (FIVE POINTS STATION),,33.753138,-84.392179,,,0,,0,
MARTA_102274,102274,ALABAMA ST @ FORSYTH ST (FIVE POINTS STATION),,33.753791,-84.392146,,,0,,0,
MARTA_102282,102282,DECATUR ST SE@COLLINS ST SE,,33.752282,-84.386602,,,0,,0,
MARTA_102289,102289,FORSYTH ST @ ALABAMA ST (FIVE POINTS STATION),,33.754015,-84.392419,,,0,,0,
MARTA_102292,102292,FORSYTH ST @ ALABAMA ST (FIVE POINTS STATION),,33.753868,-84.392723,,,0,,0,
MARTA_102294,102294,FORSYTH ST@MARTIN LUTHER KING J DR,,33.752046,-84.393716,,,0,,0,
MARTA_102296,102296,FORSYTH ST SW@MITCHELL ST SW,,33.751385,-84.394394,,,0,,0,
MARTA_102316,102316,COCA COLA PL @ JESSE HILL JR DR,,33.753699,-84.380863,,,0,,0,
MARTA_10244,902638,NORTH POINT PKY@500,,34.08513,-84.25732,,,0,,0,
MARTA_10248,902639,WINDWARD PKY@WESTSIDE DR,,34.087526,-84.268877,,,0,,0,
MARTA_10250,903217,MORRIS RD@WEBB RD,,34.096603,-84.260478,,,0,,0,
MARTA_102512,102512,JESSE HILL JR DR SE @ GILMER ST,,33.751912,-84.382995,,,0,,0,
MARTA_102518,102518,JESSE HILL JR DR SE @ ARMSTRONG ST,,33.752997,-84.381904,,,0,,0,
MARTA_10252,903218,MORRIS RD@13010,,34.094303,-84.262563,,,0,,0,
MARTA_102526,102526,BELL ST SE @ PRATT ST SE,,33.752715,-84.379623,,,0,,0,
